"land","name","area_km2","pop_tot","pop_male","pop_female","pop_density_km2","zip","lon","lat","ags","year","east","unem_tot","unem_foreigner","unem_capita"
"01","Flensburg, Stadt",56.74,85942,42767,43175,1515,"24937",9.43751,54.78252,"01001000",2015,0,4870,602,0.0566661236647972
"01","Kiel, Landeshauptstadt",118.65,246306,119835,126471,2076,"24103",10.13727,54.321775,"01002000",2015,0,13022,2665,0.0528691952286993
"01","Lübeck, Hansestadt",214.21,216253,103683,112570,1010,"23539",10.683932,53.866269,"01003000",2015,0,10858,1797,0.050209708073414
"01","Neumünster, Stadt",71.63,79197,39118,40079,1106,"24534",9.988422,54.069895,"01004000",2015,0,4200,694,0.0530323118299936
"01","Brunsbüttel, Stadt",65.23,12740,6430,6310,195,"25541",9.126939,53.896665,"01051011",2015,0,497,48,0.039010989010989
"01","Heide, Stadt",31.97,21422,10125,11297,670,"25746",9.095401,54.195834,"01051044",2015,0,1168,169,0.0545233871720661
"01","Averlak",9.07,584,303,281,64,"25715",9.182663,53.941154,"01051003",2015,0,15,1,0.0256849315068493
"01","Brickeln",6.07,204,103,101,34,"25712",9.221166,54.00849,"01051010",2015,0,8,NA,0.0392156862745098
"01","Buchholz",14.56,997,503,494,68,"25712",9.223594,53.987198,"01051012",2015,0,24,NA,0.0240722166499498
"01","Burg (Dithmarschen)",11.23,4147,2030,2117,369,"25712",9.258097,53.995937,"01051016",2015,0,194,15,0.0467808054014951
"01","Dingen",7.02,615,312,303,88,"25715",9.125804,53.960888,"01051022",2015,0,16,1,0.0260162601626016
"01","Eddelak",9.21,1360,663,697,148,"25715",9.137789,53.945505,"01051024",2015,0,36,2,0.0264705882352941
"01","Eggstedt",12.79,753,380,373,59,"25721",9.25927,54.054535,"01051026",2015,0,25,1,0.0332005312084993
"01","Frestedt",10.32,363,185,178,35,"25727",9.175759,54.023639,"01051032",2015,0,7,NA,0.0192837465564738
"01","Großenrade",10.4,483,240,243,46,"25712",9.223436,54.022051,"01051037",2015,0,18,0,0.0372670807453416
"01","Hochdonn",5.46,1147,564,583,210,"25712",9.29316,54.019565,"01051051",2015,0,42,2,0.036617262423714
"01","Kuden",11.37,631,328,303,55,"25712",9.192822,53.967853,"01051064",2015,0,18,0,0.0285261489698891
"01","Quickborn",6.95,184,90,94,26,"25712",9.206619,54.009975,"01051089",2015,0,4,0,0.0217391304347826
"01","Sankt Michaelisdonn",23.06,3432,1696,1736,149,"25693",9.122148,53.994438,"01051097",2015,0,108,6,0.0314685314685315
"01","Süderhastedt",15.74,829,404,425,53,"25727",9.20886,54.04991,"01051110",2015,0,22,NA,0.0265379975874548
"01","Diekhusen-Fahrstedt",7.46,741,375,366,99,"25709",9.028338,53.942365,"01051021",2015,0,14,0,0.0188933873144399
"01","Friedrichskoog",53.35,2565,1298,1267,48,"25718",8.89741,54.013926,"01051034",2015,0,69,4,0.0269005847953216
"01","Helse",11.44,868,440,428,76,"25709",9.010226,53.977556,"01051046",2015,0,16,0,0.0184331797235023
"01","Kaiser-Wilhelm-Koog",13.06,338,176,162,26,"25709",8.926364,53.942933,"01051057",2015,0,9,NA,0.0266272189349112
"01","Kronprinzenkoog",28.85,814,414,400,28,"25709",8.964498,53.971709,"01051062",2015,0,26,1,0.0319410319410319
"01","Marne, Stadt",4.83,5690,2696,2994,1178,"25709",9.008761,53.953695,"01051072",2015,0,203,14,0.035676625659051
"01","Marnerdeich",1.31,386,207,179,295,"25709",8.983369,53.94846,"01051073",2015,0,15,1,0.038860103626943
"01","Neufeld",10.41,602,307,295,58,"25724",9.019046,53.907224,"01051076",2015,0,16,1,0.026578073089701
"01","Neufelderkoog",9.76,121,64,57,12,"25724",8.968891,53.906887,"01051077",2015,0,2,NA,0.0165289256198347
"01","Ramhusen",4.8,156,79,77,33,"25715",9.090658,53.941207,"01051090",2015,0,1,0,0.00641025641025641
"01","Schmedeswurth",5.91,190,100,90,32,"25724",9.040335,53.926172,"01051103",2015,0,5,0,0.0263157894736842
"01","Trennewurth",7.79,250,139,111,32,"25693",9.02715,54.000216,"01051118",2015,0,6,0,0.024
"01","Volsemenhusen",16.78,348,187,161,21,"25693",9.065625,53.967901,"01051119",2015,0,8,0,0.0229885057471264
"01","Barkenholm",5.11,168,90,78,33,"25791",9.174339,54.237387,"01051005",2015,0,3,NA,0.0178571428571429
"01","Bergewöhrden",2.64,35,15,20,13,"25779",9.209426,54.318469,"01051008",2015,0,NA,NA,NA
"01","Dellstedt",21.77,746,392,354,34,"25786",9.369143,54.237892,"01051019",2015,0,20,1,0.0268096514745308
"01","Delve",15.84,685,344,341,43,"25788",9.252365,54.303978,"01051020",2015,0,19,2,0.0277372262773723
"01","Dörpling",7.82,609,311,298,78,"25794",9.301925,54.260654,"01051023",2015,0,16,1,0.0262725779967159
"01","Fedderingen",9.69,275,135,140,28,"25779",9.132642,54.281144,"01051030",2015,0,5,NA,0.0181818181818182
"01","Gaushorn",6.45,179,86,93,28,"25782",9.225318,54.194896,"01051035",2015,0,7,0,0.0391061452513966
"01","Glüsing",4.69,116,60,56,25,"25779",9.216421,54.274547,"01051036",2015,0,5,NA,0.0431034482758621
"01","Groven",7.9,87,53,34,11,"25774",8.989147,54.300165,"01051038",2015,0,1,NA,0.0114942528735632
"01","Hemme",16.53,514,277,237,31,"25774",9.010966,54.28021,"01051047",2015,0,19,2,0.0369649805447471
"01","Hennstedt",21.93,1949,977,972,89,"25779",9.168248,54.283636,"01051049",2015,0,64,4,0.0328373524884556
"01","Hövede",2.94,60,29,31,20,"25782",9.293409,54.243806,"01051052",2015,0,2,NA,0.0333333333333333
"01","Hollingstedt",9.74,303,149,154,31,"25788",9.226797,54.290548,"01051053",2015,0,12,1,0.0396039603960396
"01","Karolinenkoog",17.55,146,81,65,8,"25774",8.965425,54.292379,"01051058",2015,0,5,1,0.0342465753424658
"01","Kleve",12.81,427,216,211,33,"25779",9.123185,54.295634,"01051060",2015,0,12,NA,0.0281030444964871
"01","Krempel",4.83,597,301,296,124,"25774",9.027607,54.320019,"01051061",2015,0,30,1,0.050251256281407
"01","Lehe",18.63,1060,520,540,57,"25774",9.025334,54.344168,"01051065",2015,0,27,1,0.0254716981132075
"01","Linden",11.62,846,427,419,73,"25791",9.182428,54.252623,"01051068",2015,0,18,1,0.0212765957446809
"01","Lunden",4.65,1667,859,808,358,"25774",9.024249,54.330568,"01051071",2015,0,112,8,0.0671865626874625
"01","Norderheistedt",4.33,150,75,75,35,"25779",9.146139,54.245331,"01051080",2015,0,7,1,0.0466666666666667
"01","Pahlen",10.8,1196,600,596,111,"25794",9.296387,54.267813,"01051088",2015,0,41,1,0.0342809364548495
"01","Rehm-Flehde-Bargen",14.62,522,260,262,36,"25776",9.038383,54.291775,"01051092",2015,0,16,1,0.0306513409961686
"01","Sankt Annen",14.89,322,169,153,22,"25776",9.07975,54.345413,"01051096",2015,0,9,0,0.0279503105590062
"01","Schalkholz",12.5,586,294,292,47,"25782",9.257028,54.246244,"01051100",2015,0,20,0,0.0341296928327645
"01","Schlichting",12.5,252,133,119,20,"25779",9.089378,54.31014,"01051102",2015,0,8,2,0.0317460317460317
"01","Tellingstedt",21.1,2658,1306,1352,126,"25782",9.281893,54.219968,"01051114",2015,0,75,4,0.0282167042889391
"01","Tielenhemme",12.71,171,85,86,13,"25794",9.378654,54.269463,"01051117",2015,0,5,NA,0.0292397660818713
"01","Wallen",1.86,40,18,22,22,"25788",9.269538,54.2845,"01051120",2015,0,0,NA,0
"01","Welmbüttel",7.6,429,212,217,56,"25782",9.246826,54.196873,"01051125",2015,0,21,3,0.048951048951049
"01","Westerborstel",4.14,106,47,59,26,"25782",9.260601,54.220136,"01051131",2015,0,3,0,0.0283018867924528
"01","Wiemerstedt",5.08,160,77,83,31,"25779",9.111231,54.269297,"01051133",2015,0,6,NA,0.0375
"01","Wrohm",11.45,704,379,325,61,"25799",9.379505,54.212642,"01051136",2015,0,19,0,0.0269886363636364
"01","Süderdorf",16.21,354,177,177,22,"25782",9.343789,54.207468,"01051139",2015,0,3,NA,0.00847457627118644
"01","Süderheistedt",8.44,566,281,285,67,"25779",9.148463,54.23483,"01051141",2015,0,14,0,0.0247349823321555
"01","Hemmingstedt",16.01,2833,1409,1424,177,"25770",9.073156,54.14876,"01051048",2015,0,95,10,0.0335333568655136
"01","Lieth",4.66,380,176,204,82,"25770",9.060773,54.15531,"01051067",2015,0,12,0,0.0315789473684211
"01","Lohe-Rickelshof",5.39,2096,997,1099,389,"25746",9.065769,54.187792,"01051069",2015,0,47,1,0.0224236641221374
"01","Neuenkirchen",25.14,993,522,471,39,"25792",8.988145,54.235651,"01051075",2015,0,37,3,0.0372608257804632
"01","Norderwöhrden",18.47,291,157,134,16,"25746",9.000232,54.192783,"01051081",2015,0,3,NA,0.0103092783505155
"01","Nordhastedt",26.56,2775,1389,1386,104,"25785",9.182991,54.17205,"01051082",2015,0,76,3,0.0273873873873874
"01","Ostrohe",6.67,949,481,468,142,"25746",9.130804,54.214,"01051087",2015,0,15,1,0.0158061116965227
"01","Stelle-Wittenwurth",10.71,426,197,229,40,"25795",9.061114,54.262554,"01051107",2015,0,11,NA,0.0258215962441315
"01","Wöhrden",21.77,1247,629,618,57,"25797",8.994508,54.165463,"01051113",2015,0,35,1,0.0280673616680032
"01","Weddingstedt",17.79,2289,1157,1132,129,"25795",9.088863,54.239275,"01051122",2015,0,47,0,0.0205329838357361
"01","Wesseln",3.76,1405,698,707,374,"25746",9.075443,54.208327,"01051130",2015,0,18,1,0.0128113879003559
"01","Albersdorf",17.12,3482,1675,1807,203,"25767",9.283995,54.146557,"01051001",2015,0,159,11,0.0456634118322803
"01","Arkebek",6.92,206,101,105,30,"25767",9.250325,54.159662,"01051002",2015,0,8,NA,0.0388349514563107
"01","Bargenstedt",11.9,917,439,478,77,"25704",9.144199,54.095594,"01051004",2015,0,25,0,0.0272628135223555
"01","Barlt",22.88,802,402,400,35,"25719",9.058002,54.012444,"01051006",2015,0,22,4,0.027431421446384
"01","Bunsoh",11.75,782,393,389,67,"25767",9.320225,54.165522,"01051015",2015,0,23,0,0.0294117647058824
"01","Busenwurth",10.09,305,160,145,30,"25719",9.04131,54.041612,"01051017",2015,0,10,4,0.0327868852459016
"01","Elpersbüttel",30.17,873,449,424,29,"25704",9.047156,54.072963,"01051027",2015,0,23,1,0.0263459335624284
"01","Epenwöhrden",13.52,786,396,390,58,"25704",9.052894,54.112805,"01051028",2015,0,20,2,0.0254452926208651
"01","Gudendorf",6.04,392,197,195,65,"25693",9.1082,54.024745,"01051039",2015,0,12,1,0.0306122448979592
"01","Immenstedt",3.09,106,47,59,34,"25767",9.299737,54.180686,"01051054",2015,0,1,NA,0.00943396226415094
"01","Krumstedt",15.89,505,256,249,32,"25727",9.177954,54.068684,"01051063",2015,0,8,NA,0.0158415841584158
"01","Meldorf, Stadt",21.25,7267,3494,3773,342,"25704",9.068784,54.090945,"01051074",2015,0,330,28,0.0454107609742672
"01","Nindorf",8.73,1153,587,566,132,"25704",9.114943,54.086722,"01051078",2015,0,25,0,0.0216825672159584
"01","Odderade",11.26,324,164,160,29,"25785",9.190795,54.139384,"01051083",2015,0,12,1,0.037037037037037
"01","Offenbüttel",13.95,262,129,133,19,"25767",9.358039,54.169258,"01051085",2015,0,4,NA,0.0152671755725191
"01","Osterrade",17.09,406,204,202,24,"25767",9.353264,54.190212,"01051086",2015,0,15,0,0.0369458128078818
"01","Sarzbüttel",13.39,702,344,358,52,"25785",9.184289,54.118971,"01051098",2015,0,20,NA,0.0284900284900285
"01","Schafstedt",18.16,1266,649,617,70,"25725",9.293675,54.079915,"01051099",2015,0,24,NA,0.018957345971564
"01","Schrum",5,68,37,31,14,"25782",9.251667,54.187229,"01051104",2015,0,1,NA,0.0147058823529412
"01","Wennbüttel",4.59,86,39,47,19,"25767",9.32237,54.137969,"01051126",2015,0,1,NA,0.0116279069767442
"01","Windbergen",17.31,812,415,397,47,"25729",9.117929,54.044949,"01051134",2015,0,28,NA,0.0344827586206897
"01","Wolmersdorf",6.1,330,167,163,54,"25704",9.103978,54.077114,"01051135",2015,0,5,2,0.0151515151515152
"01","Nordermeldorf",34.1,604,322,282,18,"25704",9.013655,54.104638,"01051137",2015,0,20,2,0.033112582781457
"01","Tensbüttel-Röst",19.36,645,316,329,33,"25767",9.237322,54.116572,"01051138",2015,0,19,2,0.0294573643410853
"01","Büsum",8.48,4786,2231,2555,564,"25761",8.860613,54.129253,"01051013",2015,0,178,16,0.0371918094442123
"01","Büsumer Deichhausen",2.87,352,168,184,123,"25761",8.890088,54.136175,"01051014",2015,0,9,0,0.0255681818181818
"01","Friedrichsgabekoog",8.62,53,28,25,6,"25764",8.941082,54.157516,"01051033",2015,0,2,NA,0.0377358490566038
"01","Hedwigenkoog",16.36,212,101,111,13,"25761",8.840953,54.177985,"01051043",2015,0,5,NA,0.0235849056603774
"01","Hellschen-Heringsand-Unterschaar",7.02,182,94,88,26,"25764",8.872882,54.194536,"01051045",2015,0,4,0,0.021978021978022
"01","Hillgroven",3.6,71,44,27,20,"25764",8.874901,54.227921,"01051050",2015,0,NA,NA,NA
"01","Norddeich",6.9,401,211,190,58,"25764",8.899964,54.218058,"01051079",2015,0,16,1,0.0399002493765586
"01","Oesterdeichstrich",4.64,259,128,131,56,"25761",8.900566,54.158891,"01051084",2015,0,16,4,0.0617760617760618
"01","Reinsbüttel",6.83,428,212,216,63,"25764",8.911057,54.179073,"01051093",2015,0,8,NA,0.0186915887850467
"01","Schülp",9.27,414,218,196,45,"25764",8.929943,54.241971,"01051105",2015,0,15,0,0.036231884057971
"01","Strübbel",4.4,89,45,44,20,"25792",8.971812,54.260389,"01051108",2015,0,2,0,0.0224719101123595
"01","Süderdeich",6.64,488,236,252,73,"25764",8.91131,54.201711,"01051109",2015,0,24,1,0.0491803278688525
"01","Warwerort",4.58,253,137,116,55,"25761",8.921723,54.141177,"01051121",2015,0,7,NA,0.0276679841897233
"01","Wesselburen, Stadt",5.14,3149,1511,1638,613,"25764",8.920686,54.212159,"01051127",2015,0,142,20,0.0450936805335027
"01","Wesselburener Deichhausen",5.07,107,51,56,21,"25764",8.937237,54.174947,"01051128",2015,0,2,NA,0.0186915887850467
"01","Wesselburenerkoog",21.89,157,80,77,7,"25764",8.876161,54.239245,"01051129",2015,0,4,0,0.0254777070063694
"01","Westerdeichstrich",7.49,849,410,439,113,"25761",8.863517,54.162006,"01051132",2015,0,27,4,0.0318021201413428
"01","Oesterwurth",14.19,257,140,117,18,"25764",8.976801,54.210346,"01051140",2015,0,6,NA,0.0233463035019455
"01","Geesthacht, Stadt",33.19,30030,14662,15368,905,"21502",10.371623,53.433385,"01053032",2015,0,1420,364,0.0472860472860473
"01","Lauenburg/ Elbe, Stadt",9.54,11398,5714,5684,1195,"21481",10.554267,53.374189,"01053083",2015,0,708,136,0.0621161607299526
"01","Mölln, Stadt",25.05,18856,8965,9891,753,"23879",10.691022,53.629521,"01053090",2015,0,752,106,0.0398812049215104
"01","Ratzeburg, Stadt",30.29,14230,6727,7503,470,"23909",10.774492,53.699024,"01053100",2015,0,602,45,0.0423049894588897
"01","Schwarzenbek, Stadt",11.56,15933,7823,8110,1378,"21493",10.477663,53.502645,"01053116",2015,0,584,108,0.0366534864746124
"01","Wentorf bei Hamburg",6.87,12550,6073,6477,1827,"21465",10.2519,53.491012,"01053129",2015,0,212,41,0.0168924302788845
"01","Behlendorf",10.26,399,200,199,39,"23919",10.667846,53.699475,"01053008",2015,0,9,1,0.0225563909774436
"01","Berkenthin",10.25,2075,1017,1058,202,"23919",10.638297,53.734569,"01053009",2015,0,49,2,0.0236144578313253
"01","Bliestorf",10.35,626,305,321,60,"23847",10.602527,53.768797,"01053011",2015,0,7,2,0.0111821086261981
"01","Düchelsdorf",3.01,169,89,80,56,"23847",10.580373,53.737072,"01053024",2015,0,3,NA,0.0177514792899408
"01","Göldenitz",5.15,234,116,118,45,"23919",10.631501,53.722025,"01053034",2015,0,1,NA,0.00427350427350427
"01","Kastorf",6.9,1158,588,570,168,"23847",10.570134,53.748875,"01053061",2015,0,26,2,0.0224525043177893
"01","Klempau",10.07,641,335,306,64,"23628",10.660387,53.762851,"01053067",2015,0,9,NA,0.0140405616224649
"01","Krummesse",3.35,1772,826,946,529,"23628",10.641961,53.780123,"01053075",2015,0,33,2,0.0186230248306998
"01","Niendorf bei Berkenthin",3.99,192,91,101,48,"23919",10.626158,53.702417,"01053094",2015,0,3,NA,0.015625
"01","Rondeshagen",9.51,810,400,410,85,"23919",10.629717,53.753642,"01053103",2015,0,17,1,0.0209876543209877
"01","Sierksrade",4,385,203,182,96,"23847",10.600344,53.736555,"01053120",2015,0,9,0,0.0233766233766234
"01","Alt Mölln",6.44,896,437,459,139,"23881",10.658165,53.622775,"01053002",2015,0,22,1,0.0245535714285714
"01","Bälau",6.5,234,108,126,36,"23881",10.621739,53.616381,"01053005",2015,0,9,NA,0.0384615384615385
"01","Borstorf",8.65,279,136,143,32,"23881",10.564234,53.613074,"01053013",2015,0,4,NA,0.014336917562724
"01","Breitenfelde",12.54,1934,966,968,154,"23881",10.632977,53.605112,"01053014",2015,0,45,3,0.0232678386763185
"01","Grambek",12.66,460,218,242,36,"23883",10.68068,53.574025,"01053037",2015,0,5,1,0.0108695652173913
"01","Hornbek",5.89,188,92,96,32,"21514",10.648548,53.5589,"01053056",2015,0,2,NA,0.0106382978723404
"01","Lehmrade",11.4,502,253,249,44,"23883",10.752721,53.5947,"01053084",2015,0,18,NA,0.0358565737051793
"01","Niendorf/ Stecknitz",8.41,643,313,330,76,"23881",10.609244,53.587228,"01053095",2015,0,14,2,0.0217729393468118
"01","Schretstaken",8.47,516,270,246,61,"21493",10.554081,53.58907,"01053113",2015,0,8,0,0.0155038759689922
"01","Talkau",4.88,518,259,259,106,"21493",10.569209,53.577157,"01053125",2015,0,12,NA,0.0231660231660232
"01","Woltersdorf",7.9,294,149,145,37,"21516",10.639912,53.5768,"01053134",2015,0,6,0,0.0204081632653061
"01","Besenthal",12.65,88,49,39,7,"23899",10.743239,53.530139,"01053010",2015,0,1,NA,0.0113636363636364
"01","Bröthen",10.69,292,155,137,27,"21514",10.667504,53.480409,"01053015",2015,0,6,NA,0.0205479452054795
"01","Büchen",16.85,5686,2787,2899,337,"21514",10.616482,53.480926,"01053020",2015,0,149,10,0.0262047133309884
"01","Fitzen",9.11,349,182,167,38,"21514",10.64667,53.493942,"01053029",2015,0,6,NA,0.0171919770773639
"01","Göttin",5.21,62,32,30,12,"21514",10.70332,53.533922,"01053035",2015,0,0,NA,0
"01","Gudow",42.26,1613,807,806,38,"23899",10.77219,53.555336,"01053046",2015,0,33,0,0.0204587724736516
"01","Güster",7.78,1261,635,626,162,"21514",10.680583,53.53952,"01053048",2015,0,25,2,0.0198255352894528
"01","Klein Pampau",4.17,645,328,317,155,"21514",10.586656,53.512681,"01053064",2015,0,12,0,0.0186046511627907
"01","Langenlehsten",23.37,163,82,81,7,"21514",10.740373,53.499816,"01053080",2015,0,3,NA,0.0184049079754601
"01","Müssen",11.46,1117,554,563,97,"21516",10.562042,53.494949,"01053092",2015,0,26,1,0.0232766338406446
"01","Roseburg",16.23,518,259,259,32,"21514",10.625016,53.531303,"01053104",2015,0,8,NA,0.0154440154440154
"01","Schulendorf",11.39,454,233,221,40,"21516",10.561815,53.47331,"01053115",2015,0,8,0,0.0176211453744493
"01","Siebeneichen",4.68,243,119,124,52,"21514",10.618693,53.510828,"01053119",2015,0,11,1,0.0452674897119342
"01","Tramm",6.75,362,183,179,54,"21516",10.614693,53.563231,"01053126",2015,0,7,NA,0.0193370165745856
"01","Witzeeze",10.46,885,399,486,85,"21514",10.610144,53.452652,"01053132",2015,0,18,NA,0.0203389830508475
"01","Aumühle",3.48,3156,1485,1671,907,"21521",10.31337,53.528449,"01053003",2015,0,37,4,0.011723700887199
"01","Börnsen",8.42,4431,2212,2219,526,"21039",10.285512,53.476625,"01053012",2015,0,98,12,0.0221169036334913
"01","Dassendorf",7.95,3255,1634,1621,409,"21521",10.372665,53.488608,"01053023",2015,0,50,2,0.0153609831029186
"01","Escheburg",8.91,3431,1719,1712,385,"21039",10.309429,53.46713,"01053028",2015,0,50,6,0.014573010784028
"01","Hamwarde",6.68,843,411,432,126,"21502",10.421397,53.452847,"01053050",2015,0,10,NA,0.0118623962040332
"01","Hohenhorn",6.93,526,281,245,76,"21526",10.367641,53.475564,"01053053",2015,0,20,0,0.0380228136882129
"01","Kröppelshagen-Fahrendorf",8.37,1270,643,627,152,"21529",10.315197,53.488589,"01053072",2015,0,12,1,0.0094488188976378
"01","Wiershop",5.15,192,104,88,37,"21502",10.451895,53.442501,"01053131",2015,0,1,NA,0.00520833333333333
"01","Wohltorf",5.97,2410,1191,1219,404,"21521",10.291254,53.517253,"01053133",2015,0,29,2,0.0120331950207469
"01","Worth",6.07,168,83,85,28,"21502",10.409895,53.467424,"01053135",2015,0,6,NA,0.0357142857142857
"01","Basedow",7.47,651,333,318,87,"21483",10.583592,53.416151,"01053006",2015,0,12,0,0.0184331797235023
"01","Buchhorst",5.19,164,81,83,32,"21481",10.568335,53.384993,"01053019",2015,0,5,1,0.0304878048780488
"01","Dalldorf",6.05,372,193,179,61,"21483",10.610809,53.435819,"01053022",2015,0,6,NA,0.0161290322580645
"01","Juliusburg",6.04,176,82,94,29,"21483",10.506484,53.41715,"01053058",2015,0,4,NA,0.0227272727272727
"01","Krüzen",8.25,368,170,198,45,"21483",10.527113,53.401518,"01053073",2015,0,9,NA,0.0244565217391304
"01","Krukow",7.94,148,74,74,19,"21483",10.478187,53.418864,"01053074",2015,0,2,0,0.0135135135135135
"01","Lanze",9.05,280,145,135,31,"21483",10.604387,53.386341,"01053082",2015,0,9,0,0.0321428571428571
"01","Lütau",11.24,691,352,339,61,"21483",10.545404,53.435861,"01053087",2015,0,16,1,0.0231548480463097
"01","Schnakenbek",13.02,853,411,442,66,"21481",10.50018,53.385426,"01053111",2015,0,18,6,0.0211019929660023
"01","Wangelau",6.52,211,105,106,32,"21483",10.546476,53.453654,"01053128",2015,0,3,NA,0.014218009478673
"01","Albsfelde",4.18,76,38,38,18,"23909",10.694451,53.679957,"01053001",2015,0,NA,NA,NA
"01","Bäk",4.3,881,418,463,205,"23909",10.787081,53.716345,"01053004",2015,0,10,1,0.0113507377979569
"01","Brunsmark",4.29,154,78,76,36,"23883",10.750236,53.617106,"01053016",2015,0,4,NA,0.025974025974026
"01","Buchholz",2.93,235,119,116,80,"23911",10.745377,53.731393,"01053018",2015,0,4,NA,0.0170212765957447
"01","Einhaus",2.53,391,192,199,155,"23911",10.725697,53.714136,"01053026",2015,0,7,0,0.0179028132992327
"01","Fredeburg",10.09,42,22,20,4,"23909",10.72758,53.674357,"01053030",2015,0,NA,NA,NA
"01","Giesensdorf",2.73,153,69,84,56,"23909",10.713651,53.688273,"01053033",2015,0,3,1,0.0196078431372549
"01","Groß Disnack",5.99,79,42,37,13,"23911",10.69059,53.741974,"01053040",2015,0,1,1,0.0126582278481013
"01","Groß Grönau",4.9,3692,1804,1888,753,"23627",10.750476,53.801387,"01053041",2015,0,58,10,0.0157096424702058
"01","Groß Sarau",17.08,961,468,493,56,"23627",10.737505,53.771586,"01053043",2015,0,15,2,0.0156087408949011
"01","Harmsdorf",3.57,308,154,154,86,"23911",10.725868,53.700407,"01053051",2015,0,4,NA,0.012987012987013
"01","Hollenbek",7.21,432,228,204,60,"23883",10.819161,53.592192,"01053054",2015,0,14,NA,0.0324074074074074
"01","Horst",11.93,211,105,106,18,"23883",10.771156,53.625103,"01053057",2015,0,3,NA,0.014218009478673
"01","Kittlitz",17.73,241,131,110,14,"23911",10.918869,53.664235,"01053062",2015,0,4,NA,0.016597510373444
"01","Klein Zecher",9.11,250,120,130,27,"23883",10.872803,53.577413,"01053066",2015,0,5,NA,0.02
"01","Kulpin",6.07,212,106,106,35,"23911",10.695812,53.71009,"01053078",2015,0,6,0,0.0283018867924528
"01","Mechow",4.43,114,59,55,26,"23909",10.801815,53.717556,"01053088",2015,0,1,NA,0.0087719298245614
"01","Mustin",11.88,761,369,392,64,"23911",10.886235,53.68453,"01053093",2015,0,12,0,0.0157687253613666
"01","Pogeez",4.51,416,205,211,92,"23911",10.729435,53.750929,"01053098",2015,0,8,NA,0.0192307692307692
"01","Römnitz",5.15,55,33,22,11,"23909",10.769068,53.710716,"01053102",2015,0,1,NA,0.0181818181818182
"01","Salem",25.11,594,295,299,24,"23911",10.827965,53.656396,"01053107",2015,0,11,NA,0.0185185185185185
"01","Schmilau",11.55,548,281,267,47,"23911",10.755985,53.664589,"01053110",2015,0,10,2,0.0182481751824818
"01","Seedorf",27.89,512,261,251,18,"23883",10.866843,53.619223,"01053117",2015,0,11,0,0.021484375
"01","Sterley",21.39,921,465,456,43,"23883",10.817794,53.620149,"01053123",2015,0,20,1,0.0217155266015201
"01","Ziethen",11.18,990,488,502,89,"23911",10.809322,53.693695,"01053136",2015,0,16,1,0.0161616161616162
"01","Basthorst",10.82,415,212,203,38,"21493",10.47139,53.576616,"01053007",2015,0,9,0,0.0216867469879518
"01","Brunstorf",13.76,632,318,314,46,"21524",10.425938,53.491563,"01053017",2015,0,11,NA,0.0174050632911392
"01","Dahmker",2.04,150,82,68,74,"22946",10.444516,53.587821,"01053021",2015,0,0,NA,0
"01","Elmenhorst",12.99,868,446,422,67,"21493",10.537551,53.544876,"01053027",2015,0,17,2,0.0195852534562212
"01","Fuhlenhagen",5.74,348,181,167,61,"21493",10.526645,53.573031,"01053031",2015,0,2,0,0.00574712643678161
"01","Grabau",4.1,328,160,168,80,"21493",10.519825,53.513609,"01053036",2015,0,4,NA,0.0121951219512195
"01","Groß Pampau",4.32,153,77,76,35,"21493",10.560301,53.521808,"01053042",2015,0,4,NA,0.0261437908496732
"01","Grove",5.28,239,120,119,45,"21493",10.492067,53.528123,"01053045",2015,0,3,NA,0.0125523012552301
"01","Gülzow",17.07,1255,649,606,74,"21483",10.490939,53.442249,"01053047",2015,0,25,1,0.0199203187250996
"01","Hamfelde",3.47,479,222,257,138,"22929",10.44893,53.597194,"01053049",2015,0,8,0,0.0167014613778706
"01","Havekost",5.91,178,88,90,30,"21493",10.472892,53.539891,"01053052",2015,0,3,0,0.0168539325842697
"01","Kankelau",4.21,206,102,104,49,"21514",10.56832,53.549311,"01053059",2015,0,5,NA,0.0242718446601942
"01","Kasseburg",7.89,592,295,297,75,"22929",10.415259,53.567317,"01053060",2015,0,6,0,0.0101351351351351
"01","Köthel",1.52,270,139,131,178,"22929",10.510002,53.606936,"01053070",2015,0,6,1,0.0222222222222222
"01","Kollow",8.21,598,288,310,73,"21527",10.458799,53.463155,"01053071",2015,0,8,0,0.0133779264214047
"01","Kuddewörde",7.34,1383,675,708,188,"22958",10.401901,53.587291,"01053076",2015,0,21,1,0.0151843817787419
"01","Möhnsen",7.48,545,280,265,73,"21493",10.469197,53.559974,"01053089",2015,0,9,NA,0.0165137614678899
"01","Mühlenrade",3.74,173,82,91,46,"21493",10.48775,53.595838,"01053091",2015,0,1,NA,0.00578034682080925
"01","Sahms",5.94,389,193,196,65,"21493",10.532723,53.525807,"01053106",2015,0,4,NA,0.0102827763496144
"01","Duvensee",12.4,556,263,293,45,"23898",10.568,53.693065,"01053025",2015,0,10,2,0.0179856115107914
"01","Grinau",2.74,300,157,143,109,"23847",10.549747,53.775531,"01053038",2015,0,2,NA,0.00666666666666667
"01","Groß Boden",2.7,202,105,97,75,"23847",10.452871,53.752713,"01053039",2015,0,6,NA,0.0297029702970297
"01","Groß Schenkenberg",6.52,558,268,290,86,"23860",10.56488,53.793492,"01053044",2015,0,6,0,0.010752688172043
"01","Klinkrade",7.4,598,284,314,81,"23898",10.55033,53.716092,"01053068",2015,0,8,1,0.0133779264214047
"01","Koberg",11.98,749,380,369,63,"23881",10.52596,53.639594,"01053069",2015,0,13,0,0.0173564753004005
"01","Kühsen",7.28,375,187,188,52,"23898",10.615824,53.682661,"01053077",2015,0,6,NA,0.016
"01","Labenz",5.75,850,427,423,148,"23898",10.524596,53.708352,"01053079",2015,0,12,1,0.0141176470588235
"01","Lankau",19.12,472,241,231,25,"23881",10.665092,53.668023,"01053081",2015,0,7,NA,0.0148305084745763
"01","Linau",9.66,1198,627,571,124,"22959",10.46755,53.643933,"01053085",2015,0,11,0,0.00918196994991653
"01","Lüchow",4.62,298,156,142,65,"23898",10.529518,53.690744,"01053086",2015,0,4,0,0.0134228187919463
"01","Nusse",6.22,1072,523,549,172,"23896",10.575979,53.65908,"01053096",2015,0,27,1,0.0251865671641791
"01","Panten",13.83,633,311,322,46,"23896",10.61977,53.664571,"01053097",2015,0,10,NA,0.0157977883096366
"01","Poggensee",5.44,349,173,176,64,"23896",10.579621,53.640461,"01053099",2015,0,4,NA,0.0114613180515759
"01","Ritzerau",11.11,281,143,138,25,"23896",10.567545,53.663003,"01053101",2015,0,5,NA,0.0177935943060498
"01","Sandesneben",6.13,1792,898,894,292,"23898",10.497042,53.687957,"01053108",2015,0,29,3,0.0161830357142857
"01","Schiphorst",8.15,632,306,326,78,"23847",10.461627,53.708361,"01053109",2015,0,16,1,0.0253164556962025
"01","Schönberg",14.77,1376,698,678,93,"22929",10.433054,53.677154,"01053112",2015,0,24,0,0.0174418604651163
"01","Schürensöhlen",2.75,159,80,79,58,"23847",10.47204,53.763455,"01053114",2015,0,1,NA,0.00628930817610063
"01","Siebenbäumen",8.82,621,328,293,70,"23847",10.525162,53.749557,"01053118",2015,0,12,0,0.0193236714975845
"01","Sirksfelde",8.63,325,169,156,38,"23898",10.509773,53.665339,"01053121",2015,0,7,2,0.0215384615384615
"01","Steinhorst",16.28,585,292,293,36,"23847",10.483141,53.720135,"01053122",2015,0,5,0,0.00854700854700855
"01","Stubben",5.32,375,182,193,70,"23847",10.43068,53.732928,"01053124",2015,0,8,0,0.0213333333333333
"01","Walksfelde",3.51,216,112,104,62,"23896",10.575101,53.631901,"01053127",2015,0,4,0,0.0185185185185185
"01","Wentorf (Amt Sandesneben)",4.99,741,367,374,148,"23898",10.474911,53.67663,"01053130",2015,0,13,0,0.0175438596491228
"01","Sachsenwald (Forstgutsbez.),gemfr.Geb.",58.49,0,0,0,0,NA,10.373262,53.530995,"01053105",2015,0,NA,NA,NA
"01","Friedrichstadt, Stadt",4.03,2466,1165,1301,612,"25840",9.087943,54.37346,"01054033",2015,0,144,5,0.0583941605839416
"01","Husum, Stadt",25.81,22430,10676,11754,869,"25813",9.050149,54.476472,"01054056",2015,0,1355,154,0.060410164957646
"01","Reußenköge",45.91,335,176,159,7,"25821",8.917982,54.602246,"01054108",2015,0,8,NA,0.0238805970149254
"01","Tönning, Stadt",44.41,4895,2439,2456,110,"25832",8.94334,54.319739,"01054138",2015,0,217,21,0.0443309499489275
"01","Sylt",57.32,13453,6516,6937,235,"25980",8.323668,54.89326,"01054168",2015,0,362,60,0.0269084962461904
"01","Garding, Kirchspiel",14.89,375,184,191,25,"25836",8.791506,54.321856,"01054035",2015,0,2,0,0.00533333333333333
"01","Garding, Stadt",3.06,2597,1210,1387,849,"25836",8.778217,54.327962,"01054036",2015,0,112,5,0.0431266846361186
"01","Grothusenkoog",3.27,21,10,11,6,"25836",8.759033,54.302739,"01054040",2015,0,NA,NA,NA
"01","Katharinenheerd",8.4,170,84,86,20,"25836",8.828074,54.335199,"01054063",2015,0,2,0,0.0117647058823529
"01","Kotzenbüll",7.77,226,114,112,29,"25832",8.907487,54.333778,"01054072",2015,0,9,NA,0.0398230088495575
"01","Norderfriedrichskoog",5.31,51,26,25,10,"25870",8.893583,54.400271,"01054090",2015,0,0,NA,0
"01","Oldenswort",45.84,1262,632,630,28,"25870",8.942989,54.372281,"01054095",2015,0,39,2,0.0309033280507132
"01","Osterhever",18.5,210,105,105,11,"25836",8.765555,54.385462,"01054100",2015,0,2,NA,0.00952380952380952
"01","Poppenbüll",15.52,234,124,110,15,"25836",8.761168,54.361585,"01054104",2015,0,4,NA,0.0170940170940171
"01","Sankt Peter-Ording",28.32,3968,1875,2093,140,"25826",8.640495,54.302281,"01054113",2015,0,90,20,0.0226814516129032
"01","Tating",29.49,948,477,471,32,"25881",8.708512,54.325497,"01054134",2015,0,35,7,0.0369198312236287
"01","Tetenbüll",36.43,618,282,336,17,"25882",8.828234,54.352013,"01054135",2015,0,10,0,0.0161812297734628
"01","Tümlauer Koog",6.2,115,62,53,19,"25881",8.689757,54.348337,"01054140",2015,0,4,NA,0.0347826086956522
"01","Vollerwiek",4.62,186,94,92,40,"25836",8.794694,54.290681,"01054145",2015,0,3,NA,0.0161290322580645
"01","Welt",8.2,221,105,116,27,"25836",8.79406,54.302402,"01054148",2015,0,7,0,0.0316742081447964
"01","Westerhever",13.32,104,47,57,8,"25881",8.67563,54.382315,"01054150",2015,0,3,NA,0.0288461538461538
"01","Hörnum (Sylt)",5.64,902,471,431,160,"25997",8.286546,54.7565,"01054046",2015,0,10,0,0.0110864745011086
"01","Kampen (Sylt)",8.42,458,225,233,54,"25999",8.342294,54.955508,"01054061",2015,0,8,2,0.0174672489082969
"01","List auf Sylt",18.47,1531,777,754,83,"25992",8.436183,55.020026,"01054078",2015,0,38,11,0.0248203788373612
"01","Wenningstedt-Braderup (Sylt)",6.16,1439,682,757,234,"25996",8.3405,54.937797,"01054149",2015,0,28,5,0.019457956914524
"01","Ahrenviöl",10.11,517,271,246,51,"25885",9.206895,54.531254,"01054003",2015,0,19,0,0.0367504835589942
"01","Ahrenviölfeld",7.29,245,117,128,34,"25885",9.274084,54.534607,"01054004",2015,0,6,NA,0.0244897959183673
"01","Behrendorf",15.29,570,302,268,37,"25850",9.22759,54.562059,"01054011",2015,0,10,NA,0.0175438596491228
"01","Bondelum",9.18,174,94,80,19,"25850",9.26682,54.556555,"01054013",2015,0,6,0,0.0344827586206897
"01","Haselund",12.79,884,458,426,69,"25855",9.182961,54.591683,"01054041",2015,0,22,0,0.0248868778280543
"01","Immenstedt",14.61,693,376,317,47,"25885",9.162503,54.541449,"01054057",2015,0,13,1,0.0187590187590188
"01","Löwenstedt",19.62,657,338,319,33,"25864",9.174887,54.621612,"01054079",2015,0,8,0,0.0121765601217656
"01","Norstedt",13.5,388,199,189,29,"25884",9.129313,54.588429,"01054092",2015,0,12,NA,0.0309278350515464
"01","Oster-Ohrstedt",11.29,602,320,282,53,"25885",9.227445,54.514539,"01054101",2015,0,13,0,0.0215946843853821
"01","Schwesing",15.63,921,477,444,59,"25813",9.134622,54.493899,"01054118",2015,0,25,2,0.0271444082519001
"01","Sollwitt",10.95,284,149,135,26,"25884",9.228482,54.594606,"01054123",2015,0,8,NA,0.028169014084507
"01","Viöl",18.95,2153,1061,1092,114,"25884",9.180557,54.568875,"01054144",2015,0,43,1,0.0199721319089642
"01","Wester-Ohrstedt",18.54,1033,516,517,56,"25885",9.190063,54.507226,"01054152",2015,0,41,0,0.0396902226524685
"01","Gröde",2.52,9,4,5,4,"25869",8.717443,54.631686,"01054039",2015,0,NA,NA,NA
"01","Hallig Hooge",5.78,95,47,48,16,"25859",8.543775,54.568831,"01054050",2015,0,3,NA,0.0315789473684211
"01","Langeneß",11.57,130,68,62,11,"25863",8.613192,54.637404,"01054074",2015,0,3,NA,0.0230769230769231
"01","Pellworm",37.44,1147,541,606,31,"25849",8.656057,54.521284,"01054103",2015,0,25,1,0.021795989537925
"01","Alkersum",9.07,420,208,212,46,"25938",8.511244,54.708245,"01054005",2015,0,9,1,0.0214285714285714
"01","Borgsum",5.51,360,185,175,65,"25938",8.460009,54.699989,"01054015",2015,0,4,NA,0.0111111111111111
"01","Dunsum",2.72,77,34,43,28,"25938",8.414572,54.730715,"01054025",2015,0,NA,NA,NA
"01","Midlum",8.5,442,188,254,52,"25938",8.518625,54.714878,"01054083",2015,0,9,1,0.0203619909502262
"01","Nebel",11.96,935,441,494,78,"25946",8.353658,54.650612,"01054085",2015,0,16,3,0.0171122994652406
"01","Nieblum",7.86,561,273,288,71,"25938",8.489439,54.691947,"01054087",2015,0,11,1,0.0196078431372549
"01","Norddorf auf Amrum",5.9,563,267,296,95,"25946",8.332935,54.679638,"01054089",2015,0,16,1,0.0284191829484902
"01","Oevenum",10.87,432,203,229,40,"25938",8.530787,54.710093,"01054094",2015,0,12,1,0.0277777777777778
"01","Oldsum",13.31,496,228,268,37,"25938",8.447735,54.732075,"01054098",2015,0,8,0,0.0161290322580645
"01","Süderende",2.59,182,85,97,70,"25938",8.439339,54.725601,"01054129",2015,0,2,1,0.010989010989011
"01","Utersum",5.26,399,183,216,76,"25938",8.407243,54.714455,"01054143",2015,0,8,1,0.0200501253132832
"01","Witsum",1.59,46,23,23,29,"25938",8.44106,54.698516,"01054158",2015,0,0,NA,0
"01","Wittdün auf Amrum",2.6,780,361,419,300,"25946",8.392971,54.626534,"01054160",2015,0,29,4,0.0371794871794872
"01","Wrixum",7.56,645,311,334,85,"25938",8.548131,54.699417,"01054163",2015,0,12,0,0.0186046511627907
"01","Wyk auf Föhr, Stadt",8,4206,1911,2295,526,"25938",8.567212,54.691093,"01054164",2015,0,138,22,0.0328102710413695
"01","Achtrup",29.9,1458,756,702,49,"25917",9.028319,54.788981,"01054001",2015,0,37,0,0.0253772290809328
"01","Aventoft",14.47,455,231,224,31,"25927",8.822142,54.901249,"01054009",2015,0,9,0,0.0197802197802198
"01","Bosbüll",6.33,204,100,104,32,"25899",8.860437,54.822786,"01054016",2015,0,6,NA,0.0294117647058824
"01","Braderup",13.35,660,337,323,49,"25923",8.890293,54.835624,"01054017",2015,0,18,NA,0.0272727272727273
"01","Bramstedtlund",13.85,207,106,101,15,"25926",9.086753,54.851613,"01054018",2015,0,10,NA,0.0483091787439614
"01","Dagebüll",36.92,908,453,455,25,"25899",8.706381,54.730209,"01054022",2015,0,14,NA,0.0154185022026432
"01","Ellhöft",7.82,111,63,48,14,"25923",8.957602,54.888716,"01054027",2015,0,5,NA,0.045045045045045
"01","Friedrich-Wilhelm-Lübke-Koog",13.49,167,86,81,12,"25924",8.631939,54.862372,"01054034",2015,0,4,NA,0.0239520958083832
"01","Holm",4,79,35,44,20,"25923",8.860525,54.831367,"01054048",2015,0,1,NA,0.0126582278481013
"01","Humptrup",16.99,710,356,354,42,"25923",8.864538,54.863199,"01054055",2015,0,15,2,0.0211267605633803
"01","Karlum",14.46,205,99,106,14,"25926",8.975269,54.828646,"01054062",2015,0,2,NA,0.00975609756097561
"01","Klanxbüll",10.63,983,462,521,92,"25924",8.679546,54.864348,"01054065",2015,0,26,2,0.0264496439471007
"01","Klixbüll",17.44,961,507,454,55,"25899",8.882448,54.805242,"01054068",2015,0,29,3,0.0301768990634755
"01","Ladelund",24.09,1372,674,698,57,"25926",9.025311,54.84075,"01054073",2015,0,39,1,0.0284256559766764
"01","Leck",29.79,7601,3674,3927,255,"25917",8.974572,54.771914,"01054076",2015,0,316,19,0.041573477174056
"01","Lexgaard",5.24,51,30,21,10,"25923",8.943493,54.832022,"01054077",2015,0,2,NA,0.0392156862745098
"01","Neukirchen",31.58,1167,585,582,37,"25927",8.73388,54.868905,"01054086",2015,0,35,1,0.0299914310197087
"01","Niebüll, Stadt",30.63,9905,4752,5153,323,"25899",8.829499,54.788141,"01054088",2015,0,310,47,0.0312973245835437
"01","Risum-Lindholm",36.03,3739,1883,1856,104,"25920",8.860834,54.758552,"01054109",2015,0,79,2,0.0211286440224659
"01","Rodenäs",19.84,413,210,203,21,"25924",8.70031,54.888387,"01054110",2015,0,9,0,0.0217917675544794
"01","Sprakebüll",11.37,239,124,115,21,"25917",9.077168,54.775904,"01054124",2015,0,7,NA,0.0292887029288703
"01","Stadum",19.74,991,535,456,50,"25917",9.050473,54.736011,"01054125",2015,0,27,2,0.0272452068617558
"01","Stedesand",15.19,884,448,436,58,"25920",8.925525,54.738139,"01054126",2015,0,15,0,0.0169683257918552
"01","Süderlügum",26.59,2300,1131,1169,86,"25923",8.907944,54.872427,"01054131",2015,0,52,2,0.0226086956521739
"01","Tinningstedt",8.91,252,117,135,28,"25917",8.929787,54.811247,"01054136",2015,0,4,0,0.0158730158730159
"01","Uphusum",7.06,380,185,195,54,"25923",8.84998,54.841858,"01054142",2015,0,11,2,0.0289473684210526
"01","Westre",19.13,362,175,187,19,"25926",8.987549,54.856605,"01054154",2015,0,6,1,0.0165745856353591
"01","Galmsbüll",49.05,605,301,304,12,"25899",8.768821,54.76664,"01054165",2015,0,13,0,0.0214876033057851
"01","Emmelsbüll-Horsbüll",35.73,887,448,439,25,"25924",8.684788,54.821848,"01054166",2015,0,25,1,0.028184892897407
"01","Enge-Sande",24.82,1118,564,554,45,"25917",8.969842,54.733387,"01054167",2015,0,24,1,0.0214669051878354
"01","Arlewatt",5.57,332,181,151,60,"25860",9.083426,54.539223,"01054007",2015,0,2,NA,0.00602409638554217
"01","Drage",16.33,628,280,348,38,"25878",9.162165,54.353897,"01054023",2015,0,10,NA,0.0159235668789809
"01","Elisabeth-Sophien-Koog",5.18,46,22,24,9,"25845",8.879592,54.510068,"01054026",2015,0,1,NA,0.0217391304347826
"01","Fresendelf",2.6,97,56,41,37,"25876",9.248765,54.39338,"01054032",2015,0,3,NA,0.0309278350515464
"01","Hattstedt",7,2557,1258,1299,365,"25856",9.024735,54.528074,"01054042",2015,0,60,2,0.0234649980445835
"01","Hattstedtermarsch",35.26,290,158,132,8,"25856",8.975187,54.548738,"01054043",2015,0,8,NA,0.0275862068965517
"01","Horstedt",11.7,786,410,376,67,"25860",9.069038,54.525582,"01054052",2015,0,15,0,0.0190839694656489
"01","Hude",3.54,186,97,89,53,"25876",9.215821,54.387212,"01054054",2015,0,7,NA,0.0376344086021505
"01","Koldenbüttel",25.8,926,473,453,36,"25840",9.06819,54.385117,"01054070",2015,0,21,1,0.0226781857451404
"01","Mildstedt",8.71,3796,1812,1984,436,"25866",9.094038,54.463492,"01054084",2015,0,89,5,0.0234457323498419
"01","Nordstrand",57.21,2201,1082,1119,38,"25845",8.868067,54.48718,"01054091",2015,0,58,2,0.0263516583371195
"01","Oldersbek",10.82,683,371,312,63,"25873",9.166926,54.446343,"01054096",2015,0,17,NA,0.0248901903367496
"01","Olderup",9.94,439,223,216,44,"25860",9.112117,54.538176,"01054097",2015,0,12,0,0.0273348519362187
"01","Ostenfeld (Husum)",27.67,1562,742,820,56,"25872",9.230675,54.462866,"01054099",2015,0,36,3,0.0230473751600512
"01","Ramstedt",5.42,435,217,218,80,"25876",9.167101,54.399905,"01054105",2015,0,8,0,0.0183908045977011
"01","Rantrum",13.69,1815,914,901,133,"25873",9.129606,54.44052,"01054106",2015,0,45,1,0.0247933884297521
"01","Schwabstedt",19.64,1321,659,662,67,"25876",9.185238,54.395651,"01054116",2015,0,54,1,0.0408781226343679
"01","Seeth",13.56,1417,839,578,104,"25878",9.163158,54.36593,"01054119",2015,0,14,2,0.00988002822865208
"01","Simonsberg",17.09,801,400,401,47,"25813",8.972074,54.436645,"01054120",2015,0,22,0,0.0274656679151061
"01","Süderhöft",2.6,19,9,10,7,"25876",9.24249,54.381734,"01054130",2015,0,0,NA,0
"01","Südermarsch",30.23,162,84,78,5,"25813",9.08199,54.425929,"01054132",2015,0,6,NA,0.037037037037037
"01","Uelvesbüll",10.23,289,148,141,28,"25889",8.935322,54.415443,"01054141",2015,0,4,NA,0.013840830449827
"01","Winnert",18.88,716,352,364,38,"25887",9.201381,54.433243,"01054156",2015,0,24,1,0.0335195530726257
"01","Wisch",3.05,104,51,53,34,"25876",9.154149,54.408531,"01054157",2015,0,2,0,0.0192307692307692
"01","Wittbek",19.91,749,369,380,38,"25872",9.204139,54.473433,"01054159",2015,0,19,1,0.0253671562082777
"01","Witzwort",28.14,1036,518,518,37,"25889",8.984464,54.399484,"01054161",2015,0,24,0,0.0231660231660232
"01","Wobbenbüll",1.69,436,221,215,258,"25856",8.992516,54.530418,"01054162",2015,0,7,NA,0.0160550458715596
"01","Ahrenshöft",8.79,526,261,265,60,"25853",9.069987,54.564132,"01054002",2015,0,14,NA,0.026615969581749
"01","Almdorf",5.7,561,293,268,98,"25821",9.016496,54.579116,"01054006",2015,0,24,2,0.0427807486631016
"01","Bargum",17.29,612,308,304,35,"25842",8.962782,54.705069,"01054010",2015,0,14,NA,0.0228758169934641
"01","Bohmstedt",13.35,750,380,370,56,"25853",9.043841,54.581229,"01054012",2015,0,18,1,0.024
"01","Bordelum",34.71,1998,995,1003,58,"25852",8.924922,54.635913,"01054014",2015,0,61,1,0.0305305305305305
"01","Bredstedt, Stadt",9.75,5224,2548,2676,536,"25821",8.960958,54.620073,"01054019",2015,0,237,18,0.0453675344563553
"01","Breklum",10.06,2348,1136,1212,233,"25821",8.982127,54.605121,"01054020",2015,0,53,1,0.022572402044293
"01","Drelsdorf",17.7,1259,646,613,71,"25853",9.041284,54.60599,"01054024",2015,0,29,2,0.0230341540905481
"01","Goldebek",10.18,334,165,169,33,"25862",9.145818,54.678836,"01054037",2015,0,5,NA,0.0149700598802395
"01","Goldelund",12.02,410,200,210,34,"25862",9.107425,54.678411,"01054038",2015,0,15,1,0.0365853658536585
"01","Högel",16.28,455,223,232,28,"25858",9.056667,54.643538,"01054045",2015,0,14,0,0.0307692307692308
"01","Joldelund",19.12,715,360,355,37,"25862",9.139662,54.652937,"01054059",2015,0,16,1,0.0223776223776224
"01","Kolkerheide",2.1,54,30,24,26,"25862",9.130775,54.620407,"01054071",2015,0,NA,NA,NA
"01","Langenhorn",47.4,3172,1557,1615,67,"25842",8.926359,54.67606,"01054075",2015,0,100,2,0.0315258511979823
"01","Lütjenholm",10.71,317,170,147,30,"25842",9.021561,54.684136,"01054080",2015,0,7,0,0.0220820189274448
"01","Ockholm",18.64,325,167,158,17,"25842",8.827553,54.665128,"01054093",2015,0,8,NA,0.0246153846153846
"01","Sönnebüll",4.29,277,132,145,65,"25821",8.995888,54.63119,"01054121",2015,0,11,0,0.0397111913357401
"01","Struckum",8.92,973,484,489,109,"25821",8.994073,54.588682,"01054128",2015,0,21,0,0.0215827338129496
"01","Vollstedt",6.18,186,94,92,30,"25821",9.032722,54.623717,"01054146",2015,0,5,NA,0.0268817204301075
"01","Ahrensbök",95.37,8297,4113,4184,87,"23623",10.573059,54.011094,"01055001",2015,0,282,14,0.0339881885018681
"01","Bad Schwartau, Stadt",18.39,19945,9306,10639,1085,"23611",10.695909,53.920431,"01055004",2015,0,508,45,0.0254700426171973
"01","Bosau",64.25,3382,1729,1653,53,"23715",10.429901,54.104439,"01055007",2015,0,106,2,0.0313424009461857
"01","Dahme",9.11,1278,625,653,140,"23743",11.08163,54.223661,"01055010",2015,0,38,5,0.0297339593114241
"01","Eutin, Stadt",41.4,16979,8020,8959,410,"23701",10.614692,54.138856,"01055012",2015,0,833,65,0.0490606042758702
"01","Grömitz",51.11,7150,3446,3704,140,"23743",10.961101,54.149249,"01055016",2015,0,232,32,0.0324475524475525
"01","Grube",20.2,985,459,526,49,"23743",11.03599,54.23209,"01055018",2015,0,30,0,0.0304568527918782
"01","Heiligenhafen, Stadt",18.32,9126,4397,4729,498,"23774",10.974623,54.373048,"01055021",2015,0,324,30,0.0355029585798817
"01","Kellenhusen (Ostsee)",8.17,1037,488,549,127,"23743",11.060024,54.190749,"01055025",2015,0,44,3,0.0424300867888139
"01","Malente",69.06,10493,5084,5409,152,"23714",10.554871,54.171225,"01055028",2015,0,479,34,0.0456494806061184
"01","Neustadt in Holstein, Stadt",19.74,15041,7060,7981,762,"23730",10.816351,54.10563,"01055032",2015,0,491,56,0.0326441061099661
"01","Oldenburg in Holstein, Stadt",39.68,9771,4762,5009,246,"23758",10.888426,54.293148,"01055033",2015,0,359,42,0.0367413775457988
"01","Ratekau",59.61,15283,7433,7850,256,"23626",10.735075,53.947822,"01055035",2015,0,389,29,0.0254531178433554
"01","Stockelsdorf",56.7,16800,8191,8609,296,"23617",10.649799,53.889315,"01055040",2015,0,322,19,0.0191666666666667
"01","Süsel",75.31,5108,2538,2570,68,"23701",10.717998,54.076679,"01055041",2015,0,138,4,0.0270164447924824
"01","Timmendorfer Strand",20.13,8864,4216,4648,440,"23669",10.771082,53.995741,"01055042",2015,0,221,24,0.0249323104693141
"01","Scharbeutz",52.53,10908,5250,5658,208,"23683",10.750232,54.022793,"01055044",2015,0,272,31,0.0249358269160249
"01","Fehmarn, Stadt",185.48,12467,6111,6356,67,"23769",11.120129,54.478246,"01055046",2015,0,455,42,0.0364963503649635
"01","Göhl",21.2,1133,561,572,53,"23758",10.941851,54.284726,"01055014",2015,0,30,0,0.0264783759929391
"01","Gremersdorf",45.76,1475,761,714,32,"23758",10.927673,54.332831,"01055015",2015,0,42,3,0.0284745762711864
"01","Großenbrode",20.98,2160,1031,1129,103,"23775",11.08427,54.369696,"01055017",2015,0,47,1,0.0217592592592593
"01","Heringsdorf",29.42,1101,565,536,37,"23777",11.003697,54.300432,"01055022",2015,0,33,1,0.0299727520435967
"01","Neukirchen",28.5,1227,625,602,43,"23779",11.015153,54.323811,"01055031",2015,0,40,0,0.032599837000815
"01","Wangels",67.12,2188,1125,1063,33,"23758",10.763598,54.271569,"01055043",2015,0,64,1,0.0292504570383912
"01","Beschendorf",8.54,503,231,272,59,"23738",10.873043,54.182743,"01055006",2015,0,20,0,0.0397614314115308
"01","Damlos",9.35,646,313,333,69,"23738",10.907708,54.243016,"01055011",2015,0,11,0,0.0170278637770898
"01","Harmsdorf",17.82,654,330,324,37,"23738",10.828832,54.243561,"01055020",2015,0,15,NA,0.0229357798165138
"01","Kabelhorst",5.74,434,191,243,76,"23738",10.921118,54.215844,"01055023",2015,0,10,NA,0.0230414746543779
"01","Lensahn",27.7,4967,2375,2592,179,"23738",10.883304,54.217545,"01055027",2015,0,164,11,0.0330179182605194
"01","Manhagen",9.63,368,191,177,38,"23738",10.913686,54.194999,"01055029",2015,0,8,NA,0.0217391304347826
"01","Riepsdorf",25.81,943,477,466,37,"23738",10.969732,54.22536,"01055036",2015,0,31,1,0.0328738069989396
"01","Altenkrempe",36.64,1102,542,560,30,"23730",10.825665,54.13298,"01055002",2015,0,17,1,0.015426497277677
"01","Kasseedorf",33.77,1452,739,713,43,"23717",10.719867,54.164965,"01055024",2015,0,29,1,0.0199724517906336
"01","Schashagen",41.46,2142,1065,1077,52,"23730",10.883528,54.134271,"01055037",2015,0,55,4,0.0256769374416433
"01","Schönwalde am Bungsberg",39.06,2569,1271,1298,66,"23744",10.753453,54.187361,"01055038",2015,0,52,2,0.020241339042429
"01","Sierksdorf",19.5,1596,791,805,82,"23730",10.768366,54.066261,"01055039",2015,0,35,3,0.0219298245614035
"01","Barmstedt, Stadt",17.17,10184,4995,5189,593,"25355",9.768595,53.790385,"01056002",2015,0,275,45,0.0270031421838178
"01","Bönningstedt",12.05,4554,2241,2313,378,"25474",9.906377,53.662388,"01056005",2015,0,68,11,0.0149319279754062
"01","Elmshorn, Stadt",21.37,48684,23701,24983,2278,"25335",9.655259,53.754958,"01056015",2015,0,2322,601,0.04769534138526
"01","Halstenbek",12.58,17250,8335,8915,1371,"25469",9.837557,53.633617,"01056018",2015,0,339,44,0.0196521739130435
"01","Hasloh",11.07,3568,1738,1830,322,"25474",9.91173,53.694023,"01056021",2015,0,44,5,0.0123318385650224
"01","Helgoland",4.2,1400,698,702,333,"27498",7.889064,54.181505,"01056025",2015,0,55,7,0.0392857142857143
"01","Pinneberg, Stadt",21.54,42266,20488,21778,1962,"25421",9.793233,53.660754,"01056039",2015,0,1519,424,0.0359390526664458
"01","Quickborn, Stadt",43.17,20608,10037,10571,477,"25451",9.898034,53.728836,"01056041",2015,0,395,61,0.0191673136645963
"01","Rellingen",13.18,14089,6953,7136,1069,"25462",9.829654,53.652131,"01056043",2015,0,257,34,0.0182411810632408
"01","Schenefeld, Stadt",9.99,19152,9320,9832,1917,"22869",9.822462,53.600982,"01056044",2015,0,455,85,0.0237573099415205
"01","Tornesch, Stadt",20.61,12946,6338,6608,628,"25436",9.718707,53.698257,"01056048",2015,0,273,41,0.021087594623822
"01","Uetersen, Stadt",11.43,18101,8871,9230,1584,"25436",9.662396,53.684196,"01056049",2015,0,755,171,0.0417104027401801
"01","Wedel, Stadt",33.82,32890,15908,16982,973,"22880",9.705419,53.577353,"01056050",2015,0,906,235,0.0275463666768015
"01","Klein Nordende",10.79,3295,1629,1666,305,"25336",9.654218,53.719569,"01056029",2015,0,42,1,0.0127465857359636
"01","Klein Offenseth-Sparrieshoop",16.92,2996,1494,1502,177,"25365",9.690397,53.804948,"01056030",2015,0,50,1,0.0166889185580774
"01","Kölln-Reisiek",6.77,3209,1574,1635,474,"25337",9.70509,53.759232,"01056031",2015,0,50,7,0.015581177937052
"01","Seester",11.57,982,496,486,85,"25370",9.598071,53.717709,"01056033",2015,0,16,1,0.0162932790224033
"01","Raa-Besenbek",12.99,587,285,302,45,"25335",9.597611,53.747963,"01056042",2015,0,9,0,0.0153321976149915
"01","Seestermühe",23.35,918,445,473,39,"25371",9.56628,53.704049,"01056045",2015,0,17,2,0.0185185185185185
"01","Seeth-Ekholt",6.89,845,421,424,123,"25337",9.733304,53.736948,"01056046",2015,0,11,1,0.0130177514792899
"01","Haselau",18.88,1048,517,531,56,"25489",9.623636,53.660647,"01056019",2015,0,10,0,0.00954198473282443
"01","Haseldorf",18.08,1770,902,868,98,"25489",9.598383,53.635207,"01056020",2015,0,22,1,0.0124293785310734
"01","Hetlingen",24.1,1331,659,672,55,"25491",9.635425,53.607669,"01056027",2015,0,15,1,0.0112697220135237
"01","Bokel",16.02,628,318,310,39,"25364",9.733886,53.864194,"01056006",2015,0,17,0,0.0270700636942675
"01","Brande-Hörnerkirchen",13.14,1618,798,820,123,"25364",9.714073,53.853496,"01056010",2015,0,37,1,0.0228677379480841
"01","Osterhorn",6.38,414,205,209,65,"25364",9.698588,53.868679,"01056038",2015,0,12,1,0.0289855072463768
"01","Westerhorn",9.37,1335,650,685,142,"25364",9.682011,53.857844,"01056051",2015,0,30,3,0.0224719101123595
"01","Appen",20.28,4854,2370,2484,239,"25482",9.742706,53.659806,"01056001",2015,0,91,9,0.0187474248042851
"01","Groß Nordende",5.64,776,366,410,138,"25436",9.649515,53.70207,"01056016",2015,0,17,4,0.0219072164948454
"01","Heidgraben",5.38,2634,1347,1287,490,"25436",9.680783,53.708552,"01056023",2015,0,32,0,0.0121488230827639
"01","Heist",9.96,2849,1450,1399,286,"25492",9.656576,53.654819,"01056024",2015,0,37,0,0.012987012987013
"01","Holm",16.05,3188,1604,1584,199,"25488",9.671854,53.622062,"01056028",2015,0,45,4,0.0141154328732748
"01","Moorrege",10.76,4193,2068,2125,390,"25436",9.659074,53.668054,"01056036",2015,0,74,5,0.0176484617219175
"01","Neuendeich",8.54,533,242,291,62,"25436",9.600258,53.676281,"01056037",2015,0,4,0,0.0075046904315197
"01","Bevern",8.04,591,285,306,74,"25355",9.771042,53.755719,"01056003",2015,0,6,NA,0.0101522842639594
"01","Bilsen",6.2,762,385,377,123,"25485",9.87625,53.769901,"01056004",2015,0,17,1,0.0223097112860892
"01","Bokholt-Hanredder",8.56,1242,645,597,145,"25335",9.727312,53.781752,"01056008",2015,0,22,2,0.0177133655394525
"01","Bullenkuhlen",3.94,346,184,162,88,"25355",9.751552,53.768586,"01056011",2015,0,9,NA,0.0260115606936416
"01","Ellerhoop",10.8,1448,718,730,134,"25373",9.770845,53.727623,"01056014",2015,0,27,0,0.018646408839779
"01","Groß Offenseth-Aspern",10.56,419,243,176,40,"25355",9.73192,53.818041,"01056017",2015,0,9,NA,0.0214797136038186
"01","Heede",15.48,743,376,367,48,"25355",9.802298,53.783499,"01056022",2015,0,11,0,0.0148048452220727
"01","Hemdingen",16.42,1635,801,834,100,"25485",9.836641,53.755234,"01056026",2015,0,28,3,0.0171253822629969
"01","Langeln",10.28,564,298,266,55,"25485",9.853797,53.79393,"01056034",2015,0,12,2,0.0212765957446809
"01","Lutzhorn",21.72,775,401,374,36,"25355",9.776787,53.825517,"01056035",2015,0,14,0,0.0180645161290323
"01","Borstel-Hohenraden",14.88,2317,1164,1153,156,"25494",9.820331,53.689503,"01056009",2015,0,36,2,0.0155373327578766
"01","Ellerbek",9.11,4106,2051,2055,451,"25474",9.869465,53.657165,"01056013",2015,0,70,9,0.0170482221139795
"01","Kummerfeld",6.5,2259,1123,1136,348,"25495",9.791036,53.691612,"01056032",2015,0,39,6,0.0172642762284197
"01","Prisdorf",5.23,2322,1165,1157,444,"25497",9.761607,53.678151,"01056040",2015,0,38,5,0.016365202411714
"01","Tangstedt",12.52,2247,1153,1094,179,"25499",9.849699,53.679247,"01056047",2015,0,39,6,0.0173564753004005
"01","Ascheberg (Holstein)",20.93,2989,1425,1564,143,"24326",10.341108,54.151075,"01057001",2015,0,100,3,0.0334560053529609
"01","Bönebüttel",20.4,2052,990,1062,101,"24620",10.0593,54.079505,"01057008",2015,0,30,1,0.0146198830409357
"01","Bösdorf",21.1,1298,646,652,62,"24306",10.490762,54.14153,"01057009",2015,0,31,0,0.0238828967642527
"01","Plön, Stadt",36.73,8806,4192,4614,240,"24306",10.416369,54.158288,"01057057",2015,0,401,48,0.0455371337724279
"01","Preetz, Stadt",14.4,15895,7549,8346,1104,"24211",10.280512,54.231866,"01057062",2015,0,605,59,0.0380622837370242
"01","Schwentinental, Stadt",17.82,13575,6583,6992,762,"24223",10.232251,54.292024,"01057091",2015,0,258,32,0.0190055248618785
"01","Behrensdorf (Ostsee)",20.85,615,308,307,29,"24321",10.603736,54.346515,"01057004",2015,0,13,1,0.0211382113821138
"01","Blekendorf",38.34,1741,861,880,45,"24327",10.650894,54.276459,"01057007",2015,0,49,NA,0.0281447443997702
"01","Dannau",9.12,616,311,305,68,"24329",10.541132,54.240905,"01057013",2015,0,12,0,0.0194805194805195
"01","Giekau",32.8,1056,536,520,32,"24321",10.506159,54.317441,"01057021",2015,0,30,NA,0.0284090909090909
"01","Helmstorf",12.73,319,159,160,25,"24321",10.593478,54.286644,"01057026",2015,0,7,NA,0.0219435736677116
"01","Högsdorf",10.92,410,201,209,38,"24327",10.615055,54.251994,"01057027",2015,0,9,NA,0.0219512195121951
"01","Hohenfelde",10.54,1045,548,497,99,"24257",10.496402,54.370898,"01057029",2015,0,38,1,0.0363636363636364
"01","Hohwacht (Ostsee)",8.77,840,387,453,96,"24321",10.67371,54.320922,"01057030",2015,0,25,1,0.0297619047619048
"01","Kirchnüchel",10.09,184,95,89,18,"23714",10.680134,54.20411,"01057034",2015,0,5,0,0.0271739130434783
"01","Klamp",9.72,671,334,337,69,"24321",10.534124,54.296417,"01057035",2015,0,22,0,0.0327868852459016
"01","Kletkamp",11.52,85,40,45,7,"24327",10.638094,54.249088,"01057038",2015,0,5,1,0.0588235294117647
"01","Lütjenburg, Stadt",6.15,5739,2821,2918,933,"24321",10.592237,54.294852,"01057048",2015,0,287,22,0.0500087123192194
"01","Panker",22.76,1423,705,718,63,"24321",10.573095,54.33034,"01057055",2015,0,45,1,0.0316233309908644
"01","Schwartbuck",13.15,795,388,407,60,"24257",10.478063,54.358264,"01057076",2015,0,23,2,0.0289308176100629
"01","Tröndel",7.58,389,190,199,51,"24321",10.514076,54.342356,"01057082",2015,0,6,NA,0.0154241645244216
"01","Dersau",7.51,873,428,445,116,"24326",10.33594,54.118055,"01057015",2015,0,20,1,0.0229095074455899
"01","Dörnick",4.3,262,113,149,61,"24326",10.360375,54.163392,"01057017",2015,0,6,NA,0.0229007633587786
"01","Grebin",24.14,907,453,454,38,"24329",10.494272,54.195932,"01057022",2015,0,20,0,0.0220507166482911
"01","Kalübbe",11.8,563,289,274,48,"24326",10.283107,54.118146,"01057032",2015,0,16,NA,0.0284191829484902
"01","Lebrade",18.59,617,307,310,33,"24306",10.422164,54.216652,"01057045",2015,0,14,2,0.0226904376012966
"01","Nehmten",22.04,283,147,136,13,"24326",10.393262,54.094848,"01057053",2015,0,11,NA,0.03886925795053
"01","Rantzau",16.9,338,174,164,20,"24329",10.507361,54.253869,"01057065",2015,0,7,0,0.0207100591715976
"01","Rathjensdorf",11.79,489,243,246,41,"24306",10.427748,54.185702,"01057067",2015,0,13,NA,0.0265848670756646
"01","Wittmoldt",5.71,165,78,87,29,"24306",10.349133,54.174882,"01057089",2015,0,2,NA,0.0121212121212121
"01","Barmissen",5.15,146,71,75,28,"24245",10.175384,54.204995,"01057002",2015,0,4,NA,0.0273972602739726
"01","Boksee",5.53,447,219,228,81,"24220",10.127708,54.242982,"01057010",2015,0,8,NA,0.0178970917225951
"01","Bothkamp",13.85,270,136,134,19,"24250",10.134422,54.203356,"01057011",2015,0,6,NA,0.0222222222222222
"01","Großbarkau",2.93,205,99,106,70,"24245",10.169008,54.225363,"01057023",2015,0,9,NA,0.0439024390243902
"01","Honigsee",11.27,467,221,246,41,"24211",10.187224,54.228283,"01057031",2015,0,9,NA,0.019271948608137
"01","Kirchbarkau",2.16,806,395,411,373,"24245",10.142365,54.211515,"01057033",2015,0,9,NA,0.011166253101737
"01","Klein Barkau",4.19,263,127,136,63,"24245",10.135269,54.222719,"01057037",2015,0,4,NA,0.0152091254752852
"01","Kühren",16.81,657,337,320,39,"24211",10.258367,54.198376,"01057042",2015,0,13,1,0.0197869101978691
"01","Lehmkuhlen",31.26,1335,680,655,43,"24211",10.360709,54.226974,"01057046",2015,0,32,2,0.0239700374531835
"01","Löptin",9.08,294,149,145,32,"24250",10.215744,54.175217,"01057047",2015,0,7,0,0.0238095238095238
"01","Nettelsee",6.47,443,210,233,68,"24250",10.189086,54.174112,"01057054",2015,0,8,2,0.018058690744921
"01","Pohnsdorf",24.62,444,213,231,18,"24211",10.249321,54.239647,"01057058",2015,0,14,0,0.0315315315315315
"01","Postfeld",8.33,472,239,233,57,"24211",10.21641,54.211309,"01057059",2015,0,8,NA,0.0169491525423729
"01","Rastorf",20.01,839,425,414,42,"24211",10.289064,54.272603,"01057066",2015,0,23,2,0.0274135876042908
"01","Schellhorn",10.54,1511,729,782,143,"24211",10.299476,54.227597,"01057070",2015,0,22,0,0.014559894109861
"01","Wahlstorf",14.83,485,238,247,33,"24211",10.294716,54.178083,"01057084",2015,0,6,0,0.0123711340206186
"01","Warnau",3.98,373,177,196,94,"24250",10.160154,54.18792,"01057086",2015,0,9,NA,0.0241286863270777
"01","Barsbek",8.73,550,267,283,63,"24217",10.320134,54.404132,"01057003",2015,0,17,1,0.0309090909090909
"01","Bendfeld",4.41,210,94,116,48,"24217",10.419437,54.364157,"01057006",2015,0,3,NA,0.0142857142857143
"01","Brodersdorf",3.63,423,215,208,117,"24235",10.249254,54.385481,"01057012",2015,0,6,NA,0.0141843971631206
"01","Fahren",3.6,128,60,68,36,"24253",10.33813,54.349552,"01057018",2015,0,6,2,0.046875
"01","Fiefbergen",5.8,573,281,292,99,"24217",10.34277,54.379311,"01057020",2015,0,9,NA,0.0157068062827225
"01","Höhndorf",5.63,399,193,206,71,"24217",10.370674,54.372619,"01057028",2015,0,7,NA,0.0175438596491228
"01","Köhn",13.16,798,407,391,61,"24257",10.455111,54.34444,"01057039",2015,0,18,NA,0.0225563909774436
"01","Krokau",4.45,417,204,213,94,"24217",10.341593,54.402446,"01057040",2015,0,16,2,0.0383693045563549
"01","Krummbek",5.48,414,213,201,76,"24217",10.400709,54.37814,"01057041",2015,0,10,1,0.0241545893719807
"01","Laboe",5.23,4922,2364,2558,941,"24235",10.224323,54.404031,"01057043",2015,0,132,10,0.0268183665176757
"01","Lutterbek",3.23,368,190,178,114,"24235",10.276816,54.391952,"01057049",2015,0,3,NA,0.00815217391304348
"01","Passade",4.32,356,173,183,82,"24253",10.316786,54.366581,"01057056",2015,0,4,2,0.0112359550561798
"01","Prasdorf",4.77,455,223,232,95,"24253",10.296264,54.378679,"01057060",2015,0,9,1,0.0197802197802198
"01","Probsteierhagen",14.95,2038,1008,1030,136,"24253",10.288376,54.362604,"01057063",2015,0,42,4,0.0206084396467125
"01","Schönberg (Holstein)",11.64,6208,2964,3244,533,"24217",10.372476,54.39239,"01057073",2015,0,188,18,0.0302835051546392
"01","Stakendorf",7.97,469,241,228,59,"24217",10.422791,54.388445,"01057078",2015,0,10,0,0.0213219616204691
"01","Stein",3.81,773,389,384,203,"24235",10.268846,54.414659,"01057079",2015,0,11,0,0.0142302716688228
"01","Stoltenberg",7.78,313,154,159,40,"24256",10.346508,54.344759,"01057081",2015,0,6,0,0.0191693290734824
"01","Wendtorf",5.12,989,501,488,193,"24235",10.292376,54.409817,"01057087",2015,0,23,0,0.0232558139534884
"01","Wisch",9.18,701,351,350,76,"24217",10.344245,54.411033,"01057088",2015,0,14,NA,0.0199714693295292
"01","Dobersdorf",21.91,1100,531,569,50,"24232",10.281513,54.31849,"01057016",2015,0,28,NA,0.0254545454545455
"01","Lammershagen",25.97,257,135,122,10,"24238",10.443923,54.274509,"01057044",2015,0,13,1,0.0505836575875486
"01","Martensrade",19.53,958,481,477,49,"24238",10.392528,54.279612,"01057050",2015,0,23,2,0.0240083507306889
"01","Mucheln",14.28,573,296,277,40,"24238",10.442687,54.246421,"01057052",2015,0,16,0,0.0279232111692845
"01","Schlesen",7.99,525,251,274,66,"24256",10.328605,54.321544,"01057072",2015,0,16,NA,0.0304761904761905
"01","Selent",4.33,1361,697,664,314,"24238",10.425868,54.290473,"01057077",2015,0,50,1,0.0367376928728876
"01","Fargau-Pratjau",23.53,751,394,357,32,"24256",10.396264,54.327553,"01057090",2015,0,19,NA,0.0252996005326232
"01","Heikendorf",14.72,8150,3815,4335,554,"24226",10.207126,54.371303,"01057025",2015,0,129,12,0.0158282208588957
"01","Mönkeberg",2.78,4111,1960,2151,1479,"24226",10.187105,54.348118,"01057051",2015,0,74,9,0.0180004864996351
"01","Schönkirchen",15.95,6548,3205,3343,411,"24226",10.223696,54.336531,"01057074",2015,0,144,23,0.0219914477703115
"01","Belau",14.89,385,191,194,26,"24601",10.259724,54.097544,"01057005",2015,0,6,NA,0.0155844155844156
"01","Großharrie",13.16,504,251,253,38,"24625",10.049861,54.119087,"01057024",2015,0,11,NA,0.0218253968253968
"01","Rendswühren",19.75,753,377,376,38,"24619",10.17974,54.074276,"01057068",2015,0,14,0,0.0185922974767596
"01","Ruhwinkel",13.13,965,493,472,73,"24601",10.221823,54.094216,"01057069",2015,0,26,1,0.0269430051813472
"01","Schillsdorf",26.5,862,425,437,33,"24637",10.123873,54.116231,"01057071",2015,0,30,0,0.0348027842227378
"01","Stolpe",23.21,1250,615,635,54,"24601",10.222608,54.128911,"01057080",2015,0,31,1,0.0248
"01","Tasdorf",5.1,332,161,171,65,"24536",10.031296,54.095659,"01057083",2015,0,4,0,0.0120481927710843
"01","Wankendorf",13.34,2918,1413,1505,219,"24601",10.208038,54.112811,"01057085",2015,0,109,3,0.0373543522960932
"01","Altenholz",19.03,9901,4815,5086,520,"24161",10.120656,54.402998,"01058005",2015,0,192,17,0.0193919806080194
"01","Büdelsdorf, Stadt",6.48,10110,4893,5217,1560,"24782",9.677817,54.315687,"01058034",2015,0,310,24,0.0306627101879327
"01","Eckernförde, Stadt",21.29,21859,10372,11487,1027,"24340",9.837037,54.472791,"01058043",2015,0,796,74,0.0364152065510774
"01","Kronshagen",5.35,11807,5594,6213,2207,"24119",10.076635,54.332199,"01058092",2015,0,229,31,0.0193952739900059
"01","Rendsburg, Stadt",23.73,27617,13614,14003,1164,"24768",9.663206,54.306495,"01058135",2015,0,1804,298,0.0653220842234855
"01","Wasbek",23.49,2298,1123,1175,98,"24647",9.895541,54.07142,"01058169",2015,0,50,3,0.0217580504786771
"01","Achterwehr",15.65,966,475,491,62,"24239",9.96576,54.313379,"01058001",2015,0,11,NA,0.0113871635610766
"01","Bredenbek",12.43,1500,742,758,121,"24796",9.871054,54.324946,"01058028",2015,0,21,1,0.014
"01","Felde",13.87,2110,1053,1057,152,"24242",9.935309,54.3016,"01058050",2015,0,32,3,0.0151658767772512
"01","Krummwisch",13.91,713,376,337,51,"24796",9.897593,54.335159,"01058093",2015,0,19,0,0.0266479663394109
"01","Melsdorf",5.88,1778,893,885,302,"24109",10.029817,54.317289,"01058104",2015,0,20,0,0.0112485939257593
"01","Ottendorf",3.55,896,423,473,252,"24107",10.044532,54.340275,"01058126",2015,0,7,0,0.0078125
"01","Quarnbek",16.18,1753,872,881,108,"24107",9.983912,54.330012,"01058130",2015,0,30,2,0.0171135196805476
"01","Westensee",36.91,1537,742,795,42,"24259",9.897116,54.274997,"01058171",2015,0,21,0,0.0136629798308393
"01","Dänischenhagen",15.71,3908,1947,1961,249,"24229",10.129567,54.426044,"01058037",2015,0,46,2,0.0117707267144319
"01","Noer",13.9,837,430,407,60,"24214",10.005045,54.461334,"01058116",2015,0,15,0,0.017921146953405
"01","Schwedeneck",28.54,2790,1385,1405,98,"24229",10.069039,54.458476,"01058150",2015,0,44,1,0.0157706093189964
"01","Strande",13.73,1490,711,779,109,"24229",10.170979,54.440909,"01058157",2015,0,17,1,0.0114093959731544
"01","Felm",15.33,1182,582,600,77,"24244",10.061496,54.409603,"01058051",2015,0,15,1,0.0126903553299492
"01","Gettorf",9.35,7375,3632,3743,789,"24214",9.973683,54.407579,"01058058",2015,0,135,5,0.0183050847457627
"01","Lindau",25.18,1284,659,625,51,"24214",9.904583,54.385149,"01058096",2015,0,20,1,0.0155763239875389
"01","Neudorf-Bornstein",14.17,1076,520,556,76,"24214",9.934569,54.425599,"01058110",2015,0,26,NA,0.0241635687732342
"01","Neuwittenbek",13.12,1178,590,588,90,"24214",10.028294,54.367896,"01058112",2015,0,13,0,0.0110356536502547
"01","Osdorf",19.88,2349,1164,1185,118,"24251",10.015654,54.427956,"01058121",2015,0,40,3,0.0170285227756492
"01","Schinkel",10.21,1010,504,506,99,"24214",9.954902,54.355838,"01058142",2015,0,17,0,0.0168316831683168
"01","Tüttendorf",17.74,1217,611,606,69,"24214",9.993457,54.392146,"01058165",2015,0,18,0,0.0147904683648316
"01","Böhnhusen",5.29,291,144,147,55,"24220",10.068211,54.221123,"01058019",2015,0,5,NA,0.0171821305841924
"01","Flintbek",17.57,7305,3544,3761,416,"24220",10.083774,54.253235,"01058053",2015,0,155,9,0.0212183436002738
"01","Schönhorst",3.55,314,159,155,88,"24220",10.104166,54.225471,"01058145",2015,0,6,1,0.0191082802547771
"01","Techelsdorf",4.35,154,87,67,35,"24220",10.047182,54.214207,"01058160",2015,0,6,1,0.038961038961039
"01","Alt Duvenstedt",20.42,1888,966,922,92,"24791",9.645213,54.359629,"01058003",2015,0,44,4,0.0233050847457627
"01","Fockbek",26.65,6193,2979,3214,232,"24787",9.601368,54.304425,"01058054",2015,0,106,3,0.0171160988212498
"01","Nübbel",14.02,1525,788,737,109,"24809",9.621871,54.27262,"01058118",2015,0,23,2,0.0150819672131148
"01","Rickert",5.52,1068,515,553,193,"24782",9.669085,54.333615,"01058136",2015,0,14,NA,0.0131086142322097
"01","Bargstall",4.62,141,71,70,31,"24806",9.46575,54.260388,"01058010",2015,0,2,0,0.0141843971631206
"01","Breiholz",18.49,1373,686,687,74,"24797",9.521979,54.206137,"01058029",2015,0,20,NA,0.0145666423889294
"01","Christiansholm",8.42,233,123,110,28,"24799",9.405402,54.320498,"01058036",2015,0,7,NA,0.0300429184549356
"01","Elsdorf-Westermühlen",27.48,1625,819,806,59,"24800",9.517318,54.260728,"01058047",2015,0,46,3,0.0283076923076923
"01","Friedrichsgraben",5.39,46,25,21,9,"24799",9.419087,54.272305,"01058055",2015,0,1,NA,0.0217391304347826
"01","Friedrichsholm",7.13,405,203,202,57,"24799",9.427267,54.303024,"01058056",2015,0,9,0,0.0222222222222222
"01","Hamdorf",30.59,1285,650,635,42,"24805",9.518657,54.225554,"01058070",2015,0,25,1,0.0194552529182879
"01","Hohn",31.95,2413,1209,1204,76,"24806",9.503416,54.298721,"01058078",2015,0,50,4,0.0207210940737671
"01","Königshügel",6.26,166,82,84,27,"24799",9.474274,54.33488,"01058089",2015,0,2,NA,0.0120481927710843
"01","Lohe-Föhrden",16.03,474,252,222,30,"24806",9.522078,54.33615,"01058097",2015,0,7,1,0.0147679324894515
"01","Prinzenmoor",5.6,179,97,82,32,"24805",9.454146,54.217427,"01058129",2015,0,3,NA,0.0167597765363128
"01","Sophienhamm",5.91,323,151,172,55,"24806",9.461024,54.270234,"01058154",2015,0,12,NA,0.0371517027863777
"01","Brinjahe",4.66,124,68,56,27,"24816",9.632102,54.168528,"01058031",2015,0,3,NA,0.0241935483870968
"01","Embühren",7.45,221,100,121,30,"24819",9.591436,54.170602,"01058048",2015,0,5,NA,0.0226244343891403
"01","Haale",13.03,513,269,244,39,"24819",9.548925,54.174256,"01058068",2015,0,6,NA,0.0116959064327485
"01","Hamweddel",9.67,454,234,220,47,"24816",9.618873,54.190502,"01058071",2015,0,7,NA,0.0154185022026432
"01","Hörsten",8.82,51,26,25,6,"24797",9.578749,54.226932,"01058075",2015,0,NA,NA,NA
"01","Jevenstedt",45.55,3262,1620,1642,72,"24808",9.668849,54.234604,"01058086",2015,0,66,1,0.020232985898222
"01","Luhnstedt",15.34,396,198,198,26,"24816",9.698753,54.167176,"01058101",2015,0,10,1,0.0252525252525253
"01","Schülp b. Rendsburg",10.71,1137,555,582,106,"24813",9.629244,54.259318,"01058148",2015,0,14,0,0.0123131046613896
"01","Stafstedt",11.83,351,171,180,30,"24816",9.66287,54.170705,"01058155",2015,0,9,NA,0.0256410256410256
"01","Westerrönfeld",7.78,4933,2413,2520,634,"24784",9.646005,54.280365,"01058172",2015,0,112,6,0.0227042367727549
"01","Blumenthal",7.8,700,355,345,90,"24241",10.003257,54.226064,"01058018",2015,0,6,0,0.00857142857142857
"01","Mielkendorf",7.78,1373,675,698,176,"24247",10.040779,54.284565,"01058105",2015,0,23,2,0.0167516387472688
"01","Molfsee",7.17,4884,2325,2559,681,"24113",10.064933,54.263397,"01058107",2015,0,56,4,0.0114660114660115
"01","Rodenbek",7.09,480,231,249,68,"24247",10.01972,54.276657,"01058138",2015,0,5,0,0.0104166666666667
"01","Rumohr",8.6,824,409,415,96,"24254",10.024676,54.255177,"01058139",2015,0,10,NA,0.0121359223300971
"01","Schierensee",9.18,371,186,185,40,"24241",9.983332,54.256838,"01058141",2015,0,4,0,0.0107816711590297
"01","Bargstedt",25.32,708,359,349,28,"24793",9.769024,54.162433,"01058011",2015,0,15,0,0.0211864406779661
"01","Bokel",15.27,619,313,306,41,"24802",9.794093,54.215588,"01058021",2015,0,16,1,0.0258481421647819
"01","Borgdorf-Seedorf",6.63,399,192,207,60,"24589",9.89036,54.175682,"01058023",2015,0,10,1,0.025062656641604
"01","Brammer",13.66,390,198,192,29,"24793",9.765228,54.200192,"01058027",2015,0,7,0,0.0179487179487179
"01","Dätgen",10.61,573,287,286,54,"24589",9.934284,54.181105,"01058038",2015,0,10,NA,0.0174520069808028
"01","Eisendorf",5.49,303,150,153,55,"24589",9.869129,54.193403,"01058045",2015,0,6,NA,0.0198019801980198
"01","Ellerdorf",10.21,490,253,237,48,"24589",9.838495,54.194754,"01058046",2015,0,5,1,0.0102040816326531
"01","Emkendorf",38.93,1370,707,663,35,"24802",9.853171,54.26233,"01058049",2015,0,34,1,0.0248175182481752
"01","Gnutz",22.93,1192,613,579,52,"24622",9.823515,54.13533,"01058059",2015,0,24,2,0.0201342281879195
"01","Groß Vollstedt",9.02,966,488,478,107,"24802",9.867712,54.234713,"01058065",2015,0,21,NA,0.0217391304347826
"01","Krogaspe",11.82,431,230,201,36,"24644",9.929382,54.131573,"01058091",2015,0,6,0,0.0139211136890951
"01","Langwedel",24.22,1510,762,748,62,"24631",9.931599,54.211725,"01058094",2015,0,40,NA,0.0264900662251656
"01","Nortorf, Stadt",12.77,6650,3218,3432,521,"24589",9.855952,54.16723,"01058117",2015,0,204,19,0.0306766917293233
"01","Oldenhütten",4.33,159,81,78,37,"24793",9.740452,54.158096,"01058120",2015,0,2,NA,0.0125786163522013
"01","Schülp b. Nortorf",9.86,782,383,399,79,"24589",9.885618,54.163643,"01058147",2015,0,7,1,0.00895140664961637
"01","Timmaspe",15.36,1063,529,534,69,"24644",9.890944,54.140849,"01058163",2015,0,22,0,0.0206961429915334
"01","Warder",8.71,649,332,317,75,"24646",9.886711,54.213803,"01058168",2015,0,12,NA,0.0184899845916795
"01","Bovenau",26.2,1095,545,550,42,"24796",9.829983,54.330579,"01058026",2015,0,15,0,0.0136986301369863
"01","Haßmoor",10.28,262,126,136,25,"24790",9.820925,54.292253,"01058073",2015,0,6,NA,0.0229007633587786
"01","Ostenfeld (Rendsburg)",7.27,569,283,286,78,"24790",9.785113,54.31452,"01058122",2015,0,10,1,0.0175746924428823
"01","Osterrönfeld",17.89,5110,2583,2527,286,"24783",9.697439,54.292151,"01058124",2015,0,106,9,0.0207436399217221
"01","Rade b. Rendsburg",6.52,208,105,103,32,"24790",9.745224,54.331428,"01058132",2015,0,3,NA,0.0144230769230769
"01","Schacht-Audorf",6.52,4742,2344,2398,727,"24783",9.718033,54.313528,"01058140",2015,0,114,5,0.0240404892450443
"01","Schülldorf",12.99,767,391,376,59,"24790",9.729265,54.300344,"01058146",2015,0,12,0,0.015645371577575
"01","Bissee",9.27,169,87,82,18,"24582",10.110473,54.190703,"01058016",2015,0,8,NA,0.0473372781065089
"01","Bordesholm",10.16,7454,3638,3816,734,"24582",10.026065,54.175613,"01058022",2015,0,181,15,0.0242822645559431
"01","Brügge",7.86,1025,535,490,130,"24582",10.071067,54.174356,"01058033",2015,0,21,0,0.0204878048780488
"01","Grevenkrug",4.16,224,121,103,54,"24241",10.01044,54.212982,"01058063",2015,0,6,0,0.0267857142857143
"01","Groß Buchwald",8.95,338,177,161,38,"24582",10.085963,54.162947,"01058064",2015,0,8,NA,0.0236686390532544
"01","Hoffeld",6.62,159,76,83,24,"24582",9.98061,54.188849,"01058076",2015,0,4,NA,0.0251572327044025
"01","Loop",8.34,182,85,97,22,"24644",9.949175,54.147998,"01058098",2015,0,4,2,0.021978021978022
"01","Mühbrook",5.3,531,265,266,100,"24582",10.010108,54.157143,"01058108",2015,0,9,NA,0.0169491525423729
"01","Negenharrie",12.43,378,195,183,30,"24625",10.075273,54.143594,"01058109",2015,0,8,NA,0.0211640211640212
"01","Reesdorf",3.07,149,77,72,49,"24241",10.06034,54.190474,"01058133",2015,0,2,NA,0.0134228187919463
"01","Schmalstede",4.81,276,145,131,57,"24241",10.030205,54.19323,"01058143",2015,0,4,NA,0.0144927536231884
"01","Schönbek",6.11,209,109,100,34,"24582",9.975522,54.162731,"01058144",2015,0,3,0,0.0143540669856459
"01","Sören",6.51,185,86,99,28,"24241",9.998885,54.202744,"01058153",2015,0,2,NA,0.0108108108108108
"01","Wattenbek",6.05,2976,1454,1522,492,"24582",10.05469,54.171228,"01058170",2015,0,52,2,0.0174731182795699
"01","Ascheffel",10.39,1012,504,508,97,"24358",9.69823,54.430871,"01058008",2015,0,19,0,0.0187747035573123
"01","Borgstedt",9.15,1525,731,794,167,"24794",9.710012,54.33299,"01058024",2015,0,28,1,0.0183606557377049
"01","Brekendorf",20.47,974,500,474,48,"24811",9.630366,54.420681,"01058030",2015,0,20,NA,0.0205338809034908
"01","Bünsdorf",13.24,624,327,297,47,"24794",9.74257,54.369536,"01058035",2015,0,15,NA,0.0240384615384615
"01","Damendorf",7.48,445,221,224,59,"24361",9.735273,54.423533,"01058039",2015,0,12,NA,0.0269662921348315
"01","Groß Wittensee",23.6,1183,594,589,50,"24361",9.769945,54.404606,"01058066",2015,0,18,0,0.0152155536770921
"01","Haby",5.79,565,290,275,98,"24361",9.822077,54.395389,"01058069",2015,0,8,NA,0.0141592920353982
"01","Holtsee",21.71,1220,624,596,56,"24363",9.854754,54.39873,"01058080",2015,0,26,1,0.0213114754098361
"01","Holzbunge",5.19,330,164,166,64,"24361",9.705374,54.377747,"01058081",2015,0,6,NA,0.0181818181818182
"01","Hütten",6.91,210,114,96,30,"24358",9.717519,54.437115,"01058083",2015,0,4,NA,0.019047619047619
"01","Klein Wittensee",4.3,201,94,107,47,"24361",9.73311,54.39039,"01058088",2015,0,4,NA,0.0199004975124378
"01","Neu Duvenstedt",5.71,124,64,60,22,"24794",9.697639,54.355476,"01058111",2015,0,0,NA,0
"01","Osterby",9.84,944,480,464,96,"24367",9.753799,54.453261,"01058123",2015,0,21,0,0.0222457627118644
"01","Owschlag",39.32,3671,1825,1846,93,"24848",9.598839,54.391387,"01058127",2015,0,88,4,0.023971669844729
"01","Sehestedt",15.25,841,417,424,55,"24814",9.818375,54.366001,"01058152",2015,0,10,0,0.0118906064209275
"01","Ahlefeld-Bistensee",10.04,496,235,261,49,"24358",9.691856,54.403924,"01058175",2015,0,12,NA,0.0241935483870968
"01","Altenhof",12.13,312,173,139,26,"24340",9.875234,54.434745,"01058004",2015,0,4,NA,0.0128205128205128
"01","Barkelsby",17.87,1501,739,762,84,"24360",9.839569,54.501518,"01058012",2015,0,32,1,0.0213191205862758
"01","Brodersby",9.79,701,352,349,72,"24398",9.979854,54.634629,"01058032",2015,0,13,1,0.0185449358059914
"01","Damp",13.81,1458,727,731,106,"24351",9.984161,54.578215,"01058040",2015,0,28,3,0.0192043895747599
"01","Dörphof",15.02,729,379,350,49,"24398",9.971894,54.614129,"01058042",2015,0,22,1,0.0301783264746228
"01","Fleckeby",12.31,2148,1030,1118,174,"24357",9.696337,54.48232,"01058052",2015,0,49,3,0.0228119180633147
"01","Gammelby",8.3,524,263,261,63,"24340",9.793238,54.500342,"01058057",2015,0,10,0,0.0190839694656489
"01","Güby",11.89,689,337,352,58,"24357",9.666683,54.485952,"01058067",2015,0,13,0,0.0188679245283019
"01","Holzdorf",17.35,864,437,427,50,"24364",9.896959,54.554372,"01058082",2015,0,18,1,0.0208333333333333
"01","Hummelfeld",7.98,296,146,150,37,"24357",9.718396,54.461884,"01058084",2015,0,7,1,0.0236486486486486
"01","Karby",2.09,569,280,289,272,"24398",9.974822,54.623058,"01058087",2015,0,14,NA,0.0246045694200351
"01","Kosel",30,1395,679,716,47,"24354",9.754483,54.505335,"01058090",2015,0,28,2,0.0200716845878136
"01","Loose",13.11,829,421,408,63,"24366",9.889148,54.519595,"01058099",2015,0,24,1,0.0289505428226779
"01","Goosefeld",9.81,730,363,367,74,"24340",9.815036,54.429737,"01058102",2015,0,12,0,0.0164383561643836
"01","Rieseby",38.85,2671,1288,1383,69,"24354",9.812995,54.541709,"01058137",2015,0,76,1,0.028453762635717
"01","Thumby",27.39,428,225,203,16,"24351",9.910273,54.585574,"01058162",2015,0,12,1,0.0280373831775701
"01","Waabs",33.27,1393,656,737,42,"24369",9.983282,54.526748,"01058166",2015,0,36,1,0.0258435032304379
"01","Windeby",14.77,1053,533,520,71,"24340",9.796901,54.454793,"01058173",2015,0,33,1,0.0313390313390313
"01","Winnemark",9.58,510,258,252,53,"24398",9.922134,54.615886,"01058174",2015,0,6,NA,0.0117647058823529
"01","Arpsdorf",12.1,274,140,134,23,"24634",9.858986,54.039245,"01058007",2015,0,4,NA,0.0145985401459854
"01","Aukrug",49.91,3770,1835,1935,76,"24613",9.792414,54.077067,"01058009",2015,0,85,3,0.0225464190981432
"01","Beldorf",11.96,254,129,125,21,"25557",9.352138,54.133279,"01058013",2015,0,7,0,0.0275590551181102
"01","Bendorf",20.47,451,226,225,22,"25557",9.382283,54.087214,"01058014",2015,0,13,0,0.0288248337028825
"01","Beringstedt",14.29,727,378,349,51,"25575",9.534981,54.110562,"01058015",2015,0,21,1,0.0288858321870702
"01","Bornholt",10.94,160,83,77,15,"25557",9.335478,54.101697,"01058025",2015,0,5,NA,0.03125
"01","Ehndorf",14.68,640,329,311,44,"24647",9.893993,54.05327,"01058044",2015,0,13,0,0.0203125
"01","Gokels",10.64,580,277,303,55,"25557",9.468744,54.112001,"01058061",2015,0,19,3,0.0327586206896552
"01","Grauel",5.73,250,128,122,44,"24594",9.674147,54.070198,"01058062",2015,0,5,1,0.02
"01","Hanerau-Hademarschen",14.63,2990,1475,1515,204,"25557",9.412577,54.127369,"01058072",2015,0,126,9,0.0421404682274247
"01","Heinkenborstel",7.55,144,72,72,19,"24594",9.75104,54.130804,"01058074",2015,0,3,NA,0.0208333333333333
"01","Hohenwestedt",18.18,5229,2494,2735,288,"24594",9.651582,54.090894,"01058077",2015,0,140,14,0.0267737617135207
"01","Jahrsdorf",8.77,236,118,118,27,"24594",9.631937,54.065682,"01058085",2015,0,6,1,0.0254237288135593
"01","Lütjenwestedt",22.32,554,282,272,25,"25585",9.490806,54.140616,"01058100",2015,0,13,NA,0.0234657039711191
"01","Meezen",8.76,375,187,188,43,"24594",9.709777,54.05163,"01058103",2015,0,14,NA,0.0373333333333333
"01","Mörel",8.69,249,140,109,29,"24594",9.728528,54.113809,"01058106",2015,0,4,NA,0.0160642570281124
"01","Nienborstel",16.37,590,318,272,36,"24819",9.613481,54.136911,"01058113",2015,0,5,0,0.00847457627118644
"01","Nindorf",14.04,605,304,301,43,"24594",9.699683,54.131914,"01058115",2015,0,14,NA,0.0231404958677686
"01","Oldenbüttel",7.97,284,152,132,36,"25557",9.452474,54.168952,"01058119",2015,0,9,0,0.0316901408450704
"01","Osterstedt",10.95,682,350,332,62,"25590",9.574606,54.111751,"01058125",2015,0,22,1,0.032258064516129
"01","Padenstedt",14.6,1662,837,825,114,"24634",9.917284,54.048944,"01058128",2015,0,29,3,0.0174488567990373
"01","Rade b. Hohenwestedt",3.21,89,43,46,28,"24594",9.721127,54.101217,"01058131",2015,0,2,NA,0.0224719101123595
"01","Remmels",9.49,435,226,209,46,"24594",9.652041,54.116584,"01058134",2015,0,8,0,0.0183908045977011
"01","Seefeld",6.77,360,175,185,53,"25557",9.492849,54.101581,"01058151",2015,0,18,1,0.05
"01","Steenfeld",11.48,363,194,169,32,"25557",9.379822,54.142655,"01058156",2015,0,8,1,0.0220385674931129
"01","Tackesdorf",7.65,65,30,35,8,"25585",9.481918,54.175661,"01058158",2015,0,1,NA,0.0153846153846154
"01","Tappendorf",6.69,341,187,154,51,"24594",9.693517,54.104212,"01058159",2015,0,7,NA,0.0205278592375367
"01","Thaden",11.98,247,130,117,21,"25557",9.422414,54.103294,"01058161",2015,0,4,NA,0.0161943319838057
"01","Todenbüttel",11.78,1021,519,502,87,"24819",9.555715,54.129824,"01058164",2015,0,24,1,0.0235063663075416
"01","Wapelfeld",8.11,308,145,163,38,"24594",9.604521,54.082907,"01058167",2015,0,10,NA,0.0324675324675325
"01","Kappeln, Stadt",43.32,8709,4194,4515,201,"24376",9.931158,54.659144,"01059045",2015,0,440,43,0.0505224480422551
"01","Schleswig, Stadt",24.3,24266,11807,12459,999,"24837",9.566657,54.514941,"01059075",2015,0,1577,163,0.0649880491222286
"01","Glücksburg (Ostsee), Stadt",39.7,5850,2780,3070,147,"24960",9.550997,54.836858,"01059113",2015,0,163,14,0.0278632478632479
"01","Harrislee",18.92,11285,5498,5787,596,"24955",9.382917,54.804282,"01059120",2015,0,449,84,0.0397873283119185
"01","Handewitt",77.72,10968,5452,5516,141,"24983",9.324639,54.765104,"01059183",2015,0,238,12,0.0216994894237783
"01","Eggebek",16.68,2248,1132,1116,135,"24852",9.372178,54.619737,"01059107",2015,0,92,4,0.0409252669039146
"01","Janneby",14.49,411,194,217,28,"24992",9.300481,54.625601,"01059128",2015,0,15,NA,0.0364963503649635
"01","Jerrishoe",16,945,468,477,59,"24963",9.371801,54.657215,"01059131",2015,0,30,NA,0.0317460317460317
"01","Jörl",19.68,739,378,361,38,"24992",9.278088,54.61018,"01059132",2015,0,21,0,0.0284167794316644
"01","Langstedt",13.17,1031,500,531,78,"24852",9.385397,54.616941,"01059138",2015,0,24,NA,0.023278370514064
"01","Sollerup",12.98,477,236,241,37,"24852",9.320146,54.572957,"01059162",2015,0,16,2,0.0335429769392034
"01","Süderhackstedt",10.15,338,190,148,33,"24852",9.289498,54.592318,"01059169",2015,0,7,NA,0.0207100591715976
"01","Wanderup",28.64,2395,1191,1204,84,"24997",9.331464,54.68849,"01059174",2015,0,52,0,0.0217118997912317
"01","Borgwedel",9.96,686,314,372,69,"24857",9.666805,54.500272,"01059012",2015,0,15,NA,0.021865889212828
"01","Busdorf",5.35,2037,976,1061,381,"24866",9.553156,54.493339,"01059018",2015,0,55,1,0.0270004909180167
"01","Dannewerk",16.65,1137,579,558,68,"24867",9.498016,54.479726,"01059019",2015,0,32,0,0.0281442392260334
"01","Fahrdorf",12,2492,1192,1300,208,"24857",9.599017,54.504653,"01059026",2015,0,31,1,0.0124398073836276
"01","Geltorf",8.08,376,186,190,47,"24884",9.612616,54.46324,"01059032",2015,0,9,NA,0.023936170212766
"01","Jagel",11.89,950,482,468,80,"24878",9.537499,54.457148,"01059043",2015,0,34,NA,0.0357894736842105
"01","Lottorf",5.78,237,109,128,41,"24878",9.57292,54.45024,"01059056",2015,0,7,NA,0.029535864978903
"01","Selk",10.07,864,420,444,86,"24884",9.583539,54.468864,"01059078",2015,0,16,0,0.0185185185185185
"01","Tastrup",4.16,420,194,226,101,"24943",9.477121,54.765066,"01059101",2015,0,3,NA,0.00714285714285714
"01","Ausacker",9.13,524,262,262,57,"24975",9.574858,54.73908,"01059103",2015,0,8,2,0.0152671755725191
"01","Großsolt",25.07,1793,866,927,72,"24991",9.513444,54.699352,"01059116",2015,0,46,0,0.0256553262688232
"01","Hürup",16.2,1229,625,604,76,"24975",9.529426,54.748128,"01059126",2015,0,22,1,0.0179007323026851
"01","Husby",19.31,2296,1144,1152,119,"24975",9.577321,54.765196,"01059127",2015,0,48,2,0.0209059233449477
"01","Maasbüll",7.71,693,351,342,90,"24975",9.522839,54.778197,"01059141",2015,0,8,0,0.0115440115440115
"01","Freienwill",15.3,1552,766,786,101,"24991",9.492436,54.728589,"01059182",2015,0,29,3,0.0186855670103093
"01","Arnis, Stadt",0.45,279,144,135,620,"24399",9.932332,54.630563,"01059002",2015,0,9,NA,0.032258064516129
"01","Grödersby",6.64,214,99,115,32,"24376",9.91842,54.637617,"01059034",2015,0,5,NA,0.0233644859813084
"01","Oersberg",7.09,300,160,140,42,"24407",9.842046,54.674619,"01059067",2015,0,12,0,0.04
"01","Rabenkirchen-Faulück",14.21,631,327,304,44,"24407",9.862726,54.645176,"01059068",2015,0,27,1,0.0427892234548336
"01","Dollerup",13.08,999,501,498,76,"24989",9.680759,54.776063,"01059106",2015,0,33,1,0.033033033033033
"01","Grundhof",11.57,873,447,426,75,"24977",9.654546,54.773325,"01059118",2015,0,17,1,0.0194730813287514
"01","Langballig",15.42,1535,747,788,100,"24977",9.637034,54.799394,"01059137",2015,0,38,2,0.0247557003257329
"01","Munkbrarup",13.27,1115,559,556,84,"24960",9.561132,54.8032,"01059145",2015,0,15,0,0.0134529147982063
"01","Ringsberg",5.25,552,279,273,105,"24977",9.598332,54.807139,"01059157",2015,0,12,0,0.0217391304347826
"01","Wees",12.74,2350,1146,1204,184,"24999",9.52256,54.807217,"01059176",2015,0,38,2,0.0161702127659574
"01","Westerholz",14.74,727,347,380,49,"24977",9.668774,54.817328,"01059178",2015,0,17,1,0.0233837689133425
"01","Sieverstedt",31.01,1624,842,782,52,"24885",9.474638,54.642784,"01059159",2015,0,53,NA,0.0326354679802956
"01","Tarp",16.36,5372,2605,2767,328,"24963",9.403428,54.664107,"01059171",2015,0,214,11,0.0398361876396128
"01","Oeversee",36.26,3374,1694,1680,93,"24988",9.433082,54.702848,"01059184",2015,0,83,4,0.0245998814463545
"01","Schnarup-Thumby",10.72,553,288,265,52,"24891",9.6497,54.648513,"01059076",2015,0,14,0,0.0253164556962025
"01","Sörup",44.32,4188,2113,2075,94,"24966",9.668561,54.717901,"01059161",2015,0,145,4,0.0346227316141356
"01","Mittelangeln",44.96,5117,2563,2554,114,"24986",9.593828,54.683238,"01059185",2015,0,147,9,0.0287277701778386
"01","Böxlund",4.4,97,53,44,22,"24994",9.180687,54.840228,"01059105",2015,0,2,NA,0.0206185567010309
"01","Großenwiehe",30.2,2983,1509,1474,99,"24969",9.252522,54.71288,"01059115",2015,0,66,4,0.0221253771371103
"01","Hörup",18.15,607,317,290,33,"24980",9.103759,54.740637,"01059123",2015,0,9,NA,0.014827018121911
"01","Holt",13.42,184,100,84,14,"24994",9.147231,54.810764,"01059124",2015,0,3,1,0.016304347826087
"01","Jardelund",16.63,324,172,152,19,"24994",9.201196,54.82508,"01059129",2015,0,12,2,0.037037037037037
"01","Medelby",9.75,920,468,452,94,"24994",9.172824,54.812747,"01059143",2015,0,30,4,0.0326086956521739
"01","Meyn",12.4,741,381,360,60,"24980",9.223618,54.757551,"01059144",2015,0,20,0,0.0269905533063428
"01","Nordhackstedt",12.47,443,232,211,36,"24980",9.167001,54.7334,"01059149",2015,0,9,NA,0.0203160270880361
"01","Osterby",12.35,314,153,161,25,"24994",9.21072,54.797445,"01059151",2015,0,6,NA,0.0191082802547771
"01","Schafflund",19.09,2489,1233,1256,130,"24980",9.184281,54.759438,"01059158",2015,0,57,2,0.0229007633587786
"01","Wallsbüll",13.23,915,459,456,69,"24980",9.23803,54.774478,"01059173",2015,0,27,2,0.0295081967213115
"01","Weesby",21.44,438,226,212,20,"24994",9.152975,54.829731,"01059177",2015,0,11,0,0.0251141552511416
"01","Lindewitt",53.27,1964,1008,956,37,"24969",9.196859,54.697924,"01059179",2015,0,57,0,0.0290224032586558
"01","Böel",13.66,738,377,361,54,"24401",9.72216,54.647752,"01059006",2015,0,24,NA,0.032520325203252
"01","Brebel",6.96,404,200,204,58,"24392",9.736844,54.634527,"01059014",2015,0,18,NA,0.0445544554455446
"01","Dollrottfeld",4.99,272,149,123,55,"24392",9.808714,54.642499,"01059021",2015,0,11,1,0.0404411764705882
"01","Loit",6.69,270,138,132,40,"24888",9.699559,54.611322,"01059055",2015,0,9,0,0.0333333333333333
"01","Mohrkirch",14.42,985,491,494,68,"24405",9.706676,54.67755,"01059060",2015,0,27,1,0.0274111675126904
"01","Norderbrarup",3.98,640,315,325,161,"24392",9.768542,54.655735,"01059063",2015,0,28,2,0.04375
"01","Nottfeld",3.18,135,73,62,42,"24392",9.768634,54.618666,"01059065",2015,0,5,NA,0.037037037037037
"01","Rügge",6.01,223,107,116,37,"24405",9.761241,54.689422,"01059070",2015,0,6,NA,0.0269058295964126
"01","Saustrup",8.14,203,98,105,25,"24392",9.772102,54.671983,"01059072",2015,0,2,NA,0.00985221674876847
"01","Scheggerott",6.32,366,181,185,58,"24392",9.821294,54.667579,"01059074",2015,0,12,0,0.0327868852459016
"01","Steinfeld",8.73,767,375,392,88,"24888",9.743805,54.598384,"01059080",2015,0,19,1,0.0247718383311604
"01","Süderbrarup",8.1,4203,2035,2168,519,"24392",9.77543,54.635615,"01059083",2015,0,231,12,0.0549607423269094
"01","Ulsnis",19.81,671,339,332,34,"24897",9.747452,54.56921,"01059094",2015,0,14,NA,0.0208643815201192
"01","Wagersrott",5.64,234,123,111,41,"24392",9.79451,54.665441,"01059095",2015,0,6,1,0.0256410256410256
"01","Boren",30.15,1180,609,571,39,"24392",9.820225,54.614506,"01059187",2015,0,37,1,0.0313559322033898
"01","Böklund",7.88,1560,779,781,198,"24860",9.583662,54.603487,"01059008",2015,0,66,7,0.0423076923076923
"01","Brodersby",10.36,509,253,256,49,"24864",9.714558,54.538183,"01059016",2015,0,21,3,0.0412573673870334
"01","Goltoft",3.09,216,104,112,70,"24864",9.72206,54.54752,"01059033",2015,0,3,NA,0.0138888888888889
"01","Havetoft",14.53,956,457,499,66,"24873",9.516189,54.649422,"01059037",2015,0,31,1,0.0324267782426778
"01","Idstedt",13.35,860,415,445,64,"24879",9.511808,54.582202,"01059042",2015,0,23,1,0.0267441860465116
"01","Klappholz",8.22,471,226,245,57,"24860",9.539317,54.621371,"01059049",2015,0,15,1,0.0318471337579618
"01","Neuberend",4.42,1108,543,565,251,"24879",9.525188,54.555268,"01059062",2015,0,20,1,0.0180505415162455
"01","Schaalby",24.99,1590,789,801,64,"24882",9.63988,54.549079,"01059073",2015,0,34,0,0.0213836477987421
"01","Stolk",14.54,781,406,375,54,"24890",9.541623,54.598571,"01059081",2015,0,26,1,0.0332906530089629
"01","Struxdorf",13.4,654,354,300,49,"24891",9.63854,54.632416,"01059082",2015,0,20,0,0.0305810397553517
"01","Süderfahrenstedt",9.15,480,235,245,52,"24890",9.584252,54.585386,"01059084",2015,0,12,NA,0.025
"01","Taarstedt",13.69,918,470,448,67,"24893",9.688728,54.567229,"01059086",2015,0,28,1,0.0305010893246187
"01","Tolk",10.44,1011,512,499,97,"24894",9.639368,54.578772,"01059090",2015,0,44,1,0.0435212660731949
"01","Uelsby",10.59,416,213,203,39,"24860",9.596649,54.63128,"01059093",2015,0,18,1,0.0432692307692308
"01","Twedt",12.52,544,259,285,43,"24894",9.676062,54.597883,"01059097",2015,0,20,2,0.0367647058823529
"01","Nübel",18.32,1344,707,637,73,"24881",9.583971,54.563867,"01059098",2015,0,29,0,0.021577380952381
"01","Ahneby",3.8,196,93,103,52,"24996",9.730965,54.701421,"01059102",2015,0,3,NA,0.0153061224489796
"01","Esgrus",18.05,771,367,404,43,"24402",9.782169,54.723422,"01059109",2015,0,27,NA,0.0350194552529183
"01","Gelting",20.02,1996,959,1037,100,"24395",9.89717,54.746312,"01059112",2015,0,91,5,0.0455911823647295
"01","Hasselberg",11.3,844,458,386,75,"24376",9.977353,54.715122,"01059121",2015,0,25,1,0.0296208530805687
"01","Kronsgaard",5.92,246,114,132,42,"24395",9.965003,54.732024,"01059136",2015,0,4,NA,0.016260162601626
"01","Maasholm",8.4,593,296,297,71,"24404",9.990992,54.684233,"01059142",2015,0,20,0,0.0337268128161889
"01","Nieby",8.07,136,63,73,17,"24395",9.936705,54.771513,"01059147",2015,0,1,NA,0.00735294117647059
"01","Niesgrau",9.89,573,299,274,58,"24395",9.81269,54.744062,"01059148",2015,0,16,0,0.0279232111692845
"01","Pommerby",5.55,156,75,81,28,"24395",9.937539,54.756629,"01059152",2015,0,2,NA,0.0128205128205128
"01","Rabel",8.84,632,319,313,71,"24376",9.949198,54.690305,"01059154",2015,0,9,0,0.0142405063291139
"01","Rabenholz",5.8,274,137,137,47,"24395",9.902241,54.722168,"01059155",2015,0,12,0,0.0437956204379562
"01","Stangheck",10,221,107,114,22,"24395",9.860273,54.712702,"01059163",2015,0,7,NA,0.0316742081447964
"01","Steinberg",16.24,856,424,432,53,"24972",9.782279,54.755994,"01059164",2015,0,34,1,0.0397196261682243
"01","Sterup",17.14,1391,695,696,81,"24996",9.738908,54.727837,"01059167",2015,0,39,NA,0.0280373831775701
"01","Stoltebüll",16.4,714,356,358,44,"24409",9.878988,54.700688,"01059168",2015,0,20,0,0.0280112044817927
"01","Steinbergkirche",35.75,2761,1376,1385,77,"24972",9.759969,54.7544,"01059186",2015,0,97,11,0.035132198478812
"01","Bollingstedt",27.05,1439,745,694,53,"24855",9.412302,54.592885,"01059010",2015,0,42,0,0.029186935371786
"01","Ellingstedt",21.49,781,384,397,36,"24870",9.409623,54.477733,"01059023",2015,0,23,1,0.029449423815621
"01","Hollingstedt",17.51,997,512,485,57,"24876",9.336606,54.455932,"01059039",2015,0,29,1,0.0290872617853561
"01","Hüsby",9.68,794,385,409,82,"24850",9.484548,54.496335,"01059041",2015,0,22,2,0.0277078085642317
"01","Jübek",15.58,2649,1316,1333,170,"24855",9.394391,54.55668,"01059044",2015,0,94,0,0.0354850887127218
"01","Lürschau",16.51,1105,561,544,67,"24850",9.496358,54.538632,"01059057",2015,0,29,0,0.0262443438914027
"01","Schuby",23.94,2567,1273,1294,107,"24850",9.480215,54.51517,"01059077",2015,0,75,2,0.0292169848071679
"01","Silberstedt",37.91,2139,1120,1019,56,"24887",9.370766,54.518594,"01059079",2015,0,85,3,0.0397381954184198
"01","Treia",21.72,1533,764,769,71,"24896",9.316618,54.518494,"01059092",2015,0,41,2,0.0267449445531637
"01","Alt Bennebek",14.09,330,176,154,23,"24848",9.431246,54.377641,"01059001",2015,0,10,NA,0.0303030303030303
"01","Bergenhusen",18.22,704,365,339,39,"24861",9.316107,54.376351,"01059005",2015,0,26,0,0.0369318181818182
"01","Börm",18.71,751,394,357,40,"24863",9.378249,54.4033,"01059009",2015,0,30,1,0.0399467376830892
"01","Dörpstedt",16.61,549,279,270,33,"24869",9.362474,54.434054,"01059020",2015,0,22,0,0.0400728597449909
"01","Erfde",33.95,1844,925,919,54,"24803",9.317127,54.308546,"01059024",2015,0,66,2,0.0357917570498915
"01","Groß Rheide",15.37,884,469,415,58,"24848",9.438091,54.441211,"01059035",2015,0,24,NA,0.0271493212669683
"01","Klein Bennebek",25.63,531,277,254,21,"24848",9.456571,54.401997,"01059050",2015,0,10,NA,0.0188323917137476
"01","Klein Rheide",12.82,339,182,157,26,"24848",9.476383,54.449512,"01059051",2015,0,7,0,0.0206489675516224
"01","Kropp",31.94,6483,3141,3342,203,"24848",9.508668,54.411199,"01059053",2015,0,191,15,0.0294616689804103
"01","Meggerdorf",24.11,683,351,332,28,"24799",9.39829,54.347483,"01059058",2015,0,14,2,0.020497803806735
"01","Norderstapel",15.91,776,398,378,49,"25868",9.244945,54.360881,"01059064",2015,0,23,1,0.029639175257732
"01","Süderstapel",16.93,1003,495,508,59,"25879",9.218997,54.349368,"01059085",2015,0,44,NA,0.0438683948155533
"01","Tetenhusen",23.13,949,465,484,41,"24817",9.494238,54.349121,"01059087",2015,0,11,NA,0.0115911485774499
"01","Tielen",13.33,284,142,142,21,"24803",9.334919,54.285643,"01059088",2015,0,5,NA,0.0176056338028169
"01","Wohlde",14.43,486,249,237,34,"24899",9.294745,54.404782,"01059096",2015,0,21,0,0.0432098765432099
"01","Bad Bramstedt, Stadt",24.14,13906,6779,7127,576,"24576",9.882115,53.918792,"01060004",2015,0,489,79,0.0351646771177909
"01","Bad Segeberg, Stadt",18.87,17176,8165,9011,910,"23795",10.304193,53.937059,"01060005",2015,0,619,56,0.0360386585933861
"01","Ellerau",7.09,6035,2952,3083,851,"25479",9.917553,53.752683,"01060019",2015,0,109,12,0.0180613090306545
"01","Henstedt-Ulzburg",39.47,27705,13841,13864,702,"24558",9.991924,53.783923,"01060039",2015,0,605,67,0.0218372134993683
"01","Kaltenkirchen, Stadt",23.1,20331,9930,10401,880,"24568",9.959311,53.838257,"01060044",2015,0,749,140,0.0368402931483941
"01","Norderstedt, Stadt",58.1,76712,37123,39589,1320,"22846",9.983634,53.695736,"01060063",2015,0,1912,423,0.0249243925331109
"01","Wahlstedt, Stadt",15.75,9347,4585,4762,593,"23812",10.214464,53.952343,"01060092",2015,0,325,21,0.0347705146036161
"01","Armstedt",8.92,393,200,193,44,"24616",9.847056,53.971225,"01060003",2015,0,8,0,0.0203562340966921
"01","Bimöhlen",17.23,954,520,434,55,"24576",9.953588,53.935914,"01060009",2015,0,17,1,0.0178197064989518
"01","Borstel",5.12,131,63,68,26,"24616",9.79743,53.969545,"01060013",2015,0,2,NA,0.0152671755725191
"01","Föhrden-Barl",9.23,294,151,143,32,"25563",9.787122,53.927492,"01060021",2015,0,6,0,0.0204081632653061
"01","Fuhlendorf",6.49,426,211,215,66,"24649",9.885482,53.943215,"01060023",2015,0,9,2,0.0211267605633803
"01","Großenaspe",45.62,2883,1416,1467,63,"24623",9.966826,53.976025,"01060027",2015,0,82,8,0.0284425945195976
"01","Hagen",8.2,505,261,244,62,"24576",9.826977,53.946622,"01060031",2015,0,7,1,0.0138613861386139
"01","Hardebek",10.01,459,232,227,46,"24616",9.868731,53.988376,"01060033",2015,0,6,0,0.0130718954248366
"01","Hasenkrug",5.2,336,170,166,65,"24616",9.849789,53.985063,"01060035",2015,0,4,NA,0.0119047619047619
"01","Heidmoor",18.25,302,152,150,17,"24632",9.819023,53.864464,"01060037",2015,0,5,NA,0.0165562913907285
"01","Hitzhusen",7.93,1251,617,634,158,"24576",9.85186,53.923022,"01060040",2015,0,23,2,0.0183852917665867
"01","Mönkloh",12.52,250,123,127,20,"24576",9.787844,53.888087,"01060056",2015,0,3,NA,0.012
"01","Weddelbrook",14.05,1020,514,506,73,"24576",9.830237,53.904106,"01060095",2015,0,18,1,0.0176470588235294
"01","Wiemersdorf",17.55,1630,814,816,93,"24649",9.90454,53.95794,"01060099",2015,0,24,2,0.0147239263803681
"01","Bornhöved",14.12,3286,1626,1660,233,"24619",10.225454,54.068565,"01060012",2015,0,104,2,0.0316494217894096
"01","Damsdorf",7.75,232,118,114,30,"23824",10.314111,54.064498,"01060017",2015,0,7,0,0.0301724137931034
"01","Gönnebek",14.87,468,246,222,31,"24610",10.177561,54.049038,"01060026",2015,0,10,0,0.0213675213675214
"01","Schmalensee",8.68,462,227,235,53,"24638",10.270751,54.082608,"01060072",2015,0,7,0,0.0151515151515152
"01","Stocksee",11.38,412,210,202,36,"24326",10.343274,54.089631,"01060080",2015,0,11,NA,0.0266990291262136
"01","Tarbek",10.02,150,83,67,15,"24619",10.269726,54.055964,"01060086",2015,0,2,NA,0.0133333333333333
"01","Tensfeld",7.65,701,335,366,92,"23824",10.320723,54.042171,"01060087",2015,0,15,NA,0.021398002853067
"01","Trappenkamp",3.45,5137,2539,2598,1489,"24610",10.22097,54.041764,"01060089",2015,0,256,23,0.0498345337745766
"01","Itzstedt",7.13,2380,1218,1162,334,"23845",10.156532,53.806384,"01060043",2015,0,40,1,0.0168067226890756
"01","Kayhude",5.25,1209,609,600,230,"23863",10.134312,53.757591,"01060046",2015,0,14,4,0.0115798180314309
"01","Nahe",10.37,2356,1176,1180,227,"23866",10.134557,53.795307,"01060058",2015,0,43,5,0.018251273344652
"01","Oering",9.09,1325,671,654,146,"23845",10.14788,53.825234,"01060065",2015,0,24,0,0.0181132075471698
"01","Seth",10.55,1973,1014,959,187,"23845",10.175024,53.85039,"01060076",2015,0,43,3,0.0217942219969589
"01","Sülfeld",26.05,3175,1547,1628,122,"23867",10.231158,53.799372,"01060085",2015,0,51,3,0.0160629921259843
"01","Alveslohe",21.56,2717,1384,1333,126,"25486",9.913813,53.786906,"01060002",2015,0,59,6,0.0217151269782849
"01","Hartenholm",15.37,1832,918,914,119,"24628",10.06027,53.899992,"01060034",2015,0,52,3,0.0283842794759825
"01","Hasenmoor",17.77,717,366,351,40,"24640",9.981344,53.899913,"01060036",2015,0,14,0,0.0195258019525802
"01","Lentföhrden",20.07,2482,1265,1217,124,"24632",9.888251,53.873197,"01060054",2015,0,70,4,0.0282030620467365
"01","Nützen",21.62,1143,597,546,53,"24568",9.919785,53.864688,"01060064",2015,0,30,2,0.026246719160105
"01","Schmalfeld",19.33,1917,986,931,99,"24640",9.983686,53.876899,"01060073",2015,0,38,2,0.0198226395409494
"01","Hüttblek",2.75,371,187,184,135,"24641",10.071819,53.83945,"01060042",2015,0,2,NA,0.00539083557951483
"01","Kattendorf",9.84,851,436,415,86,"24568",10.023721,53.843003,"01060045",2015,0,14,1,0.0164512338425382
"01","Kisdorf",24.52,3812,1902,1910,155,"24629",10.007001,53.807677,"01060047",2015,0,65,3,0.0170514165792235
"01","Oersdorf",6.65,874,448,426,131,"24568",9.99486,53.840293,"01060066",2015,0,10,1,0.011441647597254
"01","Sievershütten",7.08,1182,578,604,167,"24641",10.106221,53.841324,"01060077",2015,0,28,2,0.0236886632825719
"01","Struvenhütten",12.88,1005,515,490,78,"24643",10.055588,53.865597,"01060082",2015,0,18,0,0.017910447761194
"01","Stuvenborn",7.98,864,451,413,108,"24641",10.124938,53.851444,"01060084",2015,0,15,0,0.0173611111111111
"01","Wakendorf II",12.8,1346,639,707,105,"24558",10.079879,53.780212,"01060094",2015,0,28,2,0.0208023774145617
"01","Winsen",4.08,392,199,193,96,"24568",10.015364,53.830924,"01060100",2015,0,6,NA,0.0153061224489796
"01","Bark",20.44,1003,528,475,49,"23826",10.18504,53.910575,"01060007",2015,0,30,0,0.0299102691924227
"01","Bebensee",6.68,613,282,331,92,"23816",10.29855,53.875085,"01060008",2015,0,9,1,0.0146818923327896
"01","Fredesdorf",5.9,390,201,189,66,"23826",10.203463,53.875228,"01060022",2015,0,5,NA,0.0128205128205128
"01","Groß Niendorf",10.68,668,341,327,63,"23816",10.245303,53.845757,"01060029",2015,0,10,1,0.0149700598802395
"01","Högersdorf",4.94,417,218,199,84,"23795",10.284353,53.920748,"01060041",2015,0,12,0,0.0287769784172662
"01","Kükels",8.45,442,224,218,52,"23829",10.238915,53.894887,"01060051",2015,0,10,NA,0.0226244343891403
"01","Leezen",14.98,1742,872,870,116,"23816",10.251739,53.865227,"01060053",2015,0,34,0,0.0195177956371986
"01","Mözen",7.72,442,233,209,57,"23795",10.258095,53.91108,"01060057",2015,0,5,NA,0.0113122171945701
"01","Neversdorf",7.22,708,358,350,98,"23816",10.285862,53.86477,"01060062",2015,0,14,0,0.019774011299435
"01","Schwissel",4.44,253,129,124,57,"23795",10.293634,53.895424,"01060074",2015,0,4,1,0.0158102766798419
"01","Todesfelde",17.24,1096,554,542,64,"23826",10.176082,53.891939,"01060088",2015,0,22,1,0.0200729927007299
"01","Wittenborn",6.19,857,441,416,138,"23829",10.223554,53.926269,"01060101",2015,0,25,NA,0.029171528588098
"01","Boostedt",27.11,5326,2672,2654,196,"24598",10.025785,54.010323,"01060011",2015,0,118,4,0.0221554637626737
"01","Daldorf",15.16,656,321,335,43,"24635",10.248643,54.017015,"01060016",2015,0,11,NA,0.0167682926829268
"01","Groß Kummerfeld",30.18,1909,957,952,63,"24626",10.073673,54.051542,"01060028",2015,0,32,0,0.0167627029858565
"01","Heidmühlen",17.83,697,326,371,39,"24598",10.083729,53.972482,"01060038",2015,0,14,0,0.0200860832137733
"01","Latendorf",17.94,575,302,273,32,"24598",10.063741,53.995075,"01060052",2015,0,9,0,0.0156521739130435
"01","Rickling",38.94,3134,1651,1483,80,"24635",10.16486,54.006058,"01060068",2015,0,57,0,0.0181876196553925
"01","Bahrenhof",5.71,223,108,115,39,"23845",10.379473,53.878559,"01060006",2015,0,4,NA,0.0179372197309417
"01","Blunk",10.69,574,299,275,54,"23813",10.315789,54.007567,"01060010",2015,0,19,NA,0.0331010452961672
"01","Bühnsdorf",4.15,344,176,168,83,"23845",10.374463,53.886944,"01060015",2015,0,6,NA,0.0174418604651163
"01","Dreggers",2.79,53,29,24,19,"23845",10.345729,53.885277,"01060018",2015,0,0,NA,0
"01","Fahrenkrug",6.21,1583,808,775,255,"23795",10.257059,53.941286,"01060020",2015,0,41,0,0.0259001895135818
"01","Geschendorf",5.7,545,272,273,96,"23815",10.441563,53.921999,"01060024",2015,0,10,1,0.018348623853211
"01","Glasau",18.82,915,448,467,49,"23719",10.516777,54.056669,"01060025",2015,0,18,1,0.019672131147541
"01","Groß Rönnau",6.38,577,293,284,90,"23795",10.311886,53.972406,"01060030",2015,0,8,NA,0.0138648180242634
"01","Klein Gladebrügge",4.67,592,295,297,127,"23795",10.317432,53.914441,"01060048",2015,0,18,0,0.0304054054054054
