"land","name","area_km2","pop_tot","pop_male","pop_female","pop_density_km2","zip","lon","lat","ags","year","east","unem_tot","unem_foreigner","unem_capita"
"01","Flensburg, Stadt",56.74,83971,41344,42627,1480,"24937",9.43751,54.78252,"01001000",2013,0,5205,492,0.0619856855342916
"01","Kiel, Landeshauptstadt",118.65,241533,117071,124462,2036,"24103",10.13727,54.321775,"01002000",2013,0,13070,2108,0.054112688535314
"01","Lübeck, Hansestadt",214.21,212958,101689,111269,994,"23539",10.683932,53.866269,"01003000",2013,0,11109,1693,0.0521652156763305
"01","Neumünster, Stadt",71.63,77058,37585,39473,1076,"24534",9.988422,54.069895,"01004000",2013,0,4458,630,0.0578525266682239
"01","Brunsbüttel, Stadt",65.24,12721,6358,6363,195,"25541",9.126939,53.896665,"01051011",2013,0,542,32,0.0426067133087021
"01","Heide, Stadt",31.97,21105,9911,11194,660,"25746",9.095401,54.195834,"01051044",2013,0,1155,123,0.054726368159204
"01","Averlak",9.07,581,296,285,64,"25715",9.182663,53.941154,"01051003",2013,0,15,0,0.0258175559380379
"01","Brickeln",6.07,210,104,106,35,"25712",9.221166,54.00849,"01051010",2013,0,6,0,0.0285714285714286
"01","Buchholz",14.55,1020,525,495,70,"25712",9.223594,53.987198,"01051012",2013,0,22,0,0.0215686274509804
"01","Burg (Dithmarschen)",11.23,4187,2048,2139,373,"25712",9.258097,53.995937,"01051016",2013,0,202,7,0.0482445665154048
"01","Dingen",7.02,642,328,314,91,"25715",9.125804,53.960888,"01051022",2013,0,18,0,0.0280373831775701
"01","Eddelak",9.21,1349,649,700,146,"25715",9.137789,53.945505,"01051024",2013,0,45,1,0.033358042994811
"01","Eggstedt",12.79,782,391,391,61,"25721",9.25927,54.054535,"01051026",2013,0,30,2,0.0383631713554987
"01","Frestedt",10.32,378,189,189,37,"25727",9.175759,54.023639,"01051032",2013,0,9,0,0.0238095238095238
"01","Großenrade",10.4,490,239,251,47,"25712",9.223436,54.022051,"01051037",2013,0,13,0,0.026530612244898
"01","Hochdonn",5.46,1174,578,596,215,"25712",9.29316,54.019565,"01051051",2013,0,47,2,0.0400340715502555
"01","Kuden",11.37,604,318,286,53,"25712",9.192822,53.967853,"01051064",2013,0,15,0,0.0248344370860927
"01","Quickborn",6.95,184,89,95,26,"25712",9.206619,54.009975,"01051089",2013,0,4,0,0.0217391304347826
"01","Sankt Michaelisdonn",23.05,3518,1743,1775,153,"25693",9.122148,53.994438,"01051097",2013,0,114,7,0.0324047754405912
"01","Süderhastedt",15.74,867,415,452,55,"25727",9.20886,54.04991,"01051110",2013,0,20,0,0.0230680507497117
"01","Diekhusen-Fahrstedt",7.46,727,377,350,97,"25709",9.028338,53.942365,"01051021",2013,0,18,2,0.0247592847317744
"01","Friedrichskoog",53.35,2475,1232,1243,46,"25718",8.89741,54.013926,"01051034",2013,0,74,0,0.0298989898989899
"01","Helse",11.44,865,440,425,76,"25709",9.010226,53.977556,"01051046",2013,0,22,2,0.0254335260115607
"01","Kaiser-Wilhelm-Koog",13.06,342,175,167,26,"25709",8.926364,53.942933,"01051057",2013,0,8,0,0.0233918128654971
"01","Kronprinzenkoog",28.85,827,410,417,29,"25709",8.964498,53.971709,"01051062",2013,0,27,1,0.0326481257557437
"01","Marne, Stadt",4.83,5590,2634,2956,1157,"25709",9.008761,53.953695,"01051072",2013,0,227,10,0.040608228980322
"01","Marnerdeich",1.31,392,210,182,299,"25709",8.983064,53.948488,"01051073",2013,0,13,0,0.0331632653061225
"01","Neufeld",10.41,609,310,299,59,"25724",9.019046,53.907224,"01051076",2013,0,13,0,0.0213464696223317
"01","Neufelderkoog",9.76,123,64,59,13,"25724",8.968891,53.906887,"01051077",2013,0,3,0,0.024390243902439
"01","Ramhusen",4.8,157,80,77,33,"25715",9.090658,53.941207,"01051090",2013,0,4,1,0.0254777070063694
"01","Schmedeswurth",5.91,195,105,90,33,"25724",9.041005,53.926611,"01051103",2013,0,4,0,0.0205128205128205
"01","Trennewurth",7.79,255,137,118,33,"25693",9.02715,54.000216,"01051118",2013,0,3,0,0.0117647058823529
"01","Volsemenhusen",16.77,364,189,175,22,"25693",9.065625,53.967901,"01051119",2013,0,5,0,0.0137362637362637
"01","Barkenholm",5.11,177,93,84,35,"25791",9.174339,54.237387,"01051005",2013,0,5,0,0.0282485875706215
"01","Bergewöhrden",2.64,38,19,19,14,"25779",9.209426,54.318469,"01051008",2013,0,2,0,0.0526315789473684
"01","Dellstedt",21.77,736,382,354,34,"25786",9.369143,54.237892,"01051019",2013,0,25,1,0.0339673913043478
"01","Delve",15.84,696,348,348,44,"25788",9.252365,54.303978,"01051020",2013,0,20,1,0.028735632183908
"01","Dörpling",7.82,603,309,294,77,"25794",9.301925,54.260654,"01051023",2013,0,15,1,0.0248756218905473
"01","Fedderingen",9.69,269,129,140,28,"25779",9.132642,54.281144,"01051030",2013,0,7,1,0.0260223048327138
"01","Gaushorn",6.45,186,88,98,29,"25782",9.225318,54.194896,"01051035",2013,0,7,1,0.0376344086021505
"01","Glüsing",4.69,116,65,51,25,"25779",9.216421,54.274547,"01051036",2013,0,4,0,0.0344827586206897
"01","Groven",7.9,80,49,31,10,"25774",8.989147,54.300165,"01051038",2013,0,NA,NA,NA
"01","Hemme",16.53,504,259,245,30,"25774",9.010966,54.28021,"01051047",2013,0,23,0,0.0456349206349206
"01","Hennstedt",21.93,1939,977,962,88,"25779",9.168248,54.283636,"01051049",2013,0,65,1,0.0335224342444559
"01","Hövede",2.94,61,31,30,21,"25782",9.293409,54.243806,"01051052",2013,0,2,0,0.0327868852459016
"01","Hollingstedt",9.74,304,153,151,31,"25788",9.226797,54.290548,"01051053",2013,0,8,0,0.0263157894736842
"01","Karolinenkoog",17.55,141,78,63,8,"25774",8.965425,54.292379,"01051058",2013,0,4,0,0.0283687943262411
"01","Kleve",12.81,431,218,213,34,"25779",9.123185,54.295634,"01051060",2013,0,9,0,0.0208816705336427
"01","Krempel",4.83,602,307,295,125,"25774",9.027607,54.320019,"01051061",2013,0,29,0,0.0481727574750831
"01","Lehe",18.63,1070,531,539,57,"25774",9.025334,54.344168,"01051065",2013,0,31,0,0.0289719626168224
"01","Linden",11.62,871,442,429,75,"25791",9.182428,54.252623,"01051068",2013,0,17,1,0.0195177956371986
"01","Lunden",4.65,1680,851,829,361,"25774",9.024249,54.330568,"01051071",2013,0,114,3,0.0678571428571429
"01","Norderheistedt",4.33,149,74,75,34,"25779",9.146139,54.245331,"01051080",2013,0,10,0,0.0671140939597315
"01","Pahlen",10.8,1165,583,582,108,"25794",9.296387,54.267813,"01051088",2013,0,39,1,0.0334763948497854
"01","Rehm-Flehde-Bargen",14.62,496,250,246,34,"25776",9.038383,54.291775,"01051092",2013,0,18,0,0.0362903225806452
"01","Sankt Annen",14.89,321,167,154,22,"25776",9.07975,54.345413,"01051096",2013,0,10,0,0.0311526479750779
"01","Schalkholz",12.5,602,303,299,48,"25782",9.257028,54.246244,"01051100",2013,0,22,1,0.0365448504983389
"01","Schlichting",12.5,233,125,108,19,"25776",9.089378,54.31014,"01051102",2013,0,16,1,0.0686695278969957
"01","Tellingstedt",21.1,2627,1299,1328,125,"25782",9.281893,54.219968,"01051114",2013,0,84,2,0.0319756376094404
"01","Tielenhemme",12.71,174,85,89,14,"25794",9.378654,54.269463,"01051117",2013,0,3,0,0.0172413793103448
"01","Wallen",1.86,36,18,18,19,"25788",9.269538,54.2845,"01051120",2013,0,0,0,0
"01","Welmbüttel",7.6,462,230,232,61,"25782",9.246826,54.196873,"01051125",2013,0,18,2,0.038961038961039
"01","Westerborstel",4.14,108,51,57,26,"25782",9.260601,54.220136,"01051131",2013,0,2,0,0.0185185185185185
"01","Wiemerstedt",5.08,157,78,79,31,"25779",9.111231,54.269297,"01051133",2013,0,4,0,0.0254777070063694
"01","Wrohm",11.45,678,359,319,59,"25799",9.379505,54.212642,"01051136",2013,0,20,1,0.0294985250737463
"01","Süderdorf",16.21,374,185,189,23,"25782",9.343789,54.207468,"01051139",2013,0,3,0,0.00802139037433155
"01","Süderheistedt",8.44,551,273,278,65,"25779",9.148463,54.23483,"01051141",2013,0,13,1,0.0235934664246824
"01","Hemmingstedt",16.01,2860,1443,1417,179,"25770",9.073156,54.14876,"01051048",2013,0,97,4,0.0339160839160839
"01","Lieth",4.66,403,183,220,86,"25770",9.060773,54.15531,"01051067",2013,0,10,1,0.0248138957816377
"01","Lohe-Rickelshof",5.39,2072,983,1089,384,"25746",9.065769,54.187792,"01051069",2013,0,43,1,0.0207528957528958
"01","Neuenkirchen",25.14,1002,519,483,40,"25792",8.988145,54.235651,"01051075",2013,0,29,0,0.0289421157684631
"01","Norderwöhrden",18.47,300,159,141,16,"25746",9.000232,54.192783,"01051081",2013,0,3,0,0.01
"01","Nordhastedt",26.56,2754,1369,1385,104,"25785",9.181911,54.171841,"01051082",2013,0,71,4,0.0257806826434277
"01","Ostrohe",6.67,943,472,471,141,"25746",9.130804,54.214,"01051087",2013,0,19,0,0.0201484623541888
"01","Stelle-Wittenwurth",10.71,443,203,240,41,"25795",9.061114,54.262554,"01051107",2013,0,13,0,0.0293453724604966
"01","Wöhrden",21.77,1259,638,621,58,"25797",8.994508,54.165463,"01051113",2013,0,34,2,0.0270055599682288
"01","Weddingstedt",17.79,2291,1127,1164,129,"25795",9.088863,54.239275,"01051122",2013,0,55,1,0.0240069838498472
"01","Wesseln",3.76,1418,715,703,377,"25746",9.075443,54.208327,"01051130",2013,0,19,0,0.0133991537376587
"01","Albersdorf",17.12,3433,1665,1768,201,"25767",9.283995,54.146557,"01051001",2013,0,153,6,0.0445674337314302
"01","Arkebek",6.92,219,109,110,32,"25767",9.250325,54.159662,"01051002",2013,0,8,0,0.0365296803652968
"01","Bargenstedt",11.9,929,445,484,78,"25704",9.144199,54.095594,"01051004",2013,0,25,0,0.0269106566200215
"01","Barlt",22.88,794,397,397,35,"25719",9.058002,54.012444,"01051006",2013,0,25,2,0.0314861460957179
"01","Bunsoh",11.75,786,396,390,67,"25767",9.320225,54.165522,"01051015",2013,0,24,0,0.0305343511450382
"01","Busenwurth",10.09,298,162,136,30,"25719",9.04131,54.041612,"01051017",2013,0,9,2,0.0302013422818792
"01","Elpersbüttel",30.17,870,453,417,29,"25704",9.047156,54.072963,"01051027",2013,0,23,0,0.0264367816091954
"01","Epenwöhrden",13.52,757,369,388,56,"25704",9.052894,54.112805,"01051028",2013,0,23,1,0.0303830911492734
"01","Gudendorf",6.04,379,189,190,63,"25693",9.1082,54.024745,"01051039",2013,0,7,0,0.0184696569920844
"01","Immenstedt",3.09,96,46,50,31,"25767",9.299737,54.180686,"01051054",2013,0,1,0,0.0104166666666667
"01","Krumstedt",15.89,505,247,258,32,"25727",9.177954,54.068684,"01051063",2013,0,13,0,0.0257425742574257
"01","Meldorf, Stadt",21.25,7294,3498,3796,343,"25704",9.068784,54.090945,"01051074",2013,0,316,21,0.0433232794077324
"01","Nindorf",8.73,1168,587,581,134,"25704",9.114943,54.086722,"01051078",2013,0,22,1,0.0188356164383562
"01","Odderade",11.26,321,166,155,29,"25785",9.190795,54.139384,"01051083",2013,0,12,0,0.0373831775700935
"01","Offenbüttel",13.95,265,133,132,19,"25767",9.358039,54.169258,"01051085",2013,0,5,0,0.0188679245283019
"01","Osterrade",17.09,396,201,195,23,"25767",9.353264,54.190212,"01051086",2013,0,13,0,0.0328282828282828
"01","Sarzbüttel",13.39,709,356,353,53,"25785",9.184289,54.118971,"01051098",2013,0,23,1,0.0324400564174894
"01","Schafstedt",18.16,1307,663,644,72,"25725",9.293675,54.079915,"01051099",2013,0,32,1,0.0244835501147666
"01","Schrum",5,71,40,31,14,"25782",9.251667,54.187229,"01051104",2013,0,2,0,0.028169014084507
"01","Wennbüttel",4.59,85,40,45,19,"25767",9.32237,54.137969,"01051126",2013,0,0,0,0
"01","Windbergen",17.31,808,413,395,47,"25729",9.117929,54.044949,"01051134",2013,0,29,2,0.0358910891089109
"01","Wolmersdorf",6.1,342,170,172,56,"25704",9.103978,54.077114,"01051135",2013,0,5,1,0.0146198830409357
"01","Nordermeldorf",34.1,596,310,286,17,"25704",9.013655,54.104638,"01051137",2013,0,19,0,0.0318791946308725
"01","Tensbüttel-Röst",19.36,670,329,341,35,"25767",9.237322,54.116572,"01051138",2013,0,15,1,0.0223880597014925
"01","Büsum",8.48,4782,2224,2558,564,"25761",8.860613,54.129253,"01051013",2013,0,185,9,0.0386867419489753
"01","Büsumer Deichhausen",2.87,371,168,203,129,"25761",8.890088,54.136175,"01051014",2013,0,11,1,0.0296495956873315
"01","Friedrichsgabekoog",8.62,49,25,24,6,"25764",8.941082,54.157516,"01051033",2013,0,1,0,0.0204081632653061
"01","Hedwigenkoog",16.36,236,108,128,14,"25761",8.840953,54.177985,"01051043",2013,0,5,0,0.0211864406779661
"01","Hellschen-Heringsand-Unterschaar",7.02,169,87,82,24,"25764",8.872882,54.194536,"01051045",2013,0,4,0,0.0236686390532544
"01","Hillgroven",3.6,73,44,29,20,"25764",8.874901,54.227921,"01051050",2013,0,1,0,0.0136986301369863
"01","Norddeich",6.9,409,217,192,59,"25764",8.899964,54.218058,"01051079",2013,0,19,0,0.0464547677261614
"01","Oesterdeichstrich",4.63,254,130,124,55,"25761",8.900566,54.158891,"01051084",2013,0,9,1,0.0354330708661417
"01","Reinsbüttel",6.83,441,216,225,65,"25764",8.911057,54.179073,"01051093",2013,0,8,0,0.018140589569161
"01","Schülp",9.27,454,236,218,49,"25764",8.92997,54.241672,"01051105",2013,0,18,0,0.039647577092511
"01","Strübbel",4.4,85,38,47,19,"25792",8.971812,54.260389,"01051108",2013,0,4,0,0.0470588235294118
"01","Süderdeich",6.64,467,222,245,70,"25764",8.91131,54.201711,"01051109",2013,0,20,0,0.0428265524625268
"01","Warwerort",4.57,245,126,119,54,"25761",8.921723,54.141177,"01051121",2013,0,9,0,0.036734693877551
"01","Wesselburen, Stadt",5.14,3006,1440,1566,585,"25764",8.920686,54.212159,"01051127",2013,0,143,11,0.0475715236194278
"01","Wesselburener Deichhausen",5.07,123,63,60,24,"25764",8.937237,54.174947,"01051128",2013,0,3,0,0.024390243902439
"01","Wesselburenerkoog",21.89,167,82,85,8,"25764",8.876161,54.239245,"01051129",2013,0,4,0,0.0239520958083832
"01","Westerdeichstrich",7.49,855,406,449,114,"25761",8.863517,54.162006,"01051132",2013,0,25,0,0.0292397660818713
"01","Oesterwurth",14.19,266,140,126,19,"25764",8.976801,54.210346,"01051140",2013,0,7,0,0.0263157894736842
"01","Geesthacht, Stadt",33.19,29363,14273,15090,885,"21502",10.371623,53.433385,"01053032",2013,0,1437,309,0.0489391410959371
"01","Lauenburg/ Elbe, Stadt",9.54,11253,5585,5668,1180,"21481",10.554267,53.374189,"01053083",2013,0,712,111,0.0632720163511952
"01","Mölln, Stadt",25.05,18520,8735,9785,739,"23879",10.691022,53.629521,"01053090",2013,0,788,100,0.042548596112311
"01","Ratzeburg, Stadt",30.29,13866,6467,7399,458,"23909",10.774492,53.699024,"01053100",2013,0,623,39,0.0449300447136882
"01","Schwarzenbek, Stadt",11.56,15278,7455,7823,1322,"21493",10.477663,53.502645,"01053116",2013,0,631,98,0.0413012174368373
"01","Wentorf bei Hamburg",6.87,12104,5832,6272,1762,"21465",10.2519,53.491012,"01053129",2013,0,222,31,0.0183410442828817
"01","Behlendorf",10.26,372,183,189,36,"23919",10.667846,53.699475,"01053008",2013,0,6,0,0.0161290322580645
"01","Berkenthin",10.25,2062,1020,1042,201,"23919",10.638297,53.734569,"01053009",2013,0,44,1,0.0213385063045587
"01","Bliestorf",10.35,643,303,340,62,"23847",10.602527,53.768797,"01053011",2013,0,6,0,0.00933125972006221
"01","Düchelsdorf",3.01,152,79,73,50,"23847",10.580373,53.737072,"01053024",2013,0,2,0,0.0131578947368421
"01","Göldenitz",5.15,231,116,115,45,"23919",10.631501,53.722025,"01053034",2013,0,4,0,0.0173160173160173
"01","Kastorf",6.9,1151,584,567,167,"23847",10.570134,53.748875,"01053061",2013,0,27,1,0.0234578627280626
"01","Klempau",10.07,626,328,298,62,"23628",10.660387,53.762851,"01053067",2013,0,9,0,0.0143769968051118
"01","Krummesse",3.35,1717,814,903,513,"23628",10.641961,53.780123,"01053075",2013,0,28,0,0.0163075131042516
"01","Niendorf bei Berkenthin",3.99,193,96,97,48,"23919",10.626158,53.702417,"01053094",2013,0,5,1,0.0259067357512953
"01","Rondeshagen",9.51,834,410,424,88,"23919",10.629717,53.753642,"01053103",2013,0,11,0,0.013189448441247
"01","Sierksrade",4,367,193,174,92,"23847",10.600344,53.736555,"01053120",2013,0,13,0,0.0354223433242507
"01","Alt Mölln",6.44,855,416,439,133,"23881",10.658165,53.622775,"01053002",2013,0,18,1,0.0210526315789474
"01","Bälau",6.5,229,107,122,35,"23881",10.621739,53.616381,"01053005",2013,0,8,0,0.0349344978165939
"01","Borstorf",8.65,270,136,134,31,"23881",10.564234,53.613074,"01053013",2013,0,2,0,0.00740740740740741
"01","Breitenfelde",12.54,1932,968,964,154,"23881",10.632977,53.605112,"01053014",2013,0,50,1,0.025879917184265
"01","Grambek",12.66,418,201,217,33,"23883",10.68068,53.574025,"01053037",2013,0,6,0,0.0143540669856459
"01","Hornbek",5.89,178,88,90,30,"21514",10.648548,53.5589,"01053056",2013,0,5,0,0.0280898876404494
"01","Lehmrade",11.4,491,241,250,43,"23883",10.752721,53.5947,"01053084",2013,0,20,0,0.0407331975560081
"01","Niendorf/ Stecknitz",8.41,641,324,317,76,"23881",10.609244,53.587228,"01053095",2013,0,7,1,0.0109204368174727
"01","Schretstaken",8.47,502,257,245,59,"21493",10.554081,53.58907,"01053113",2013,0,11,0,0.0219123505976096
"01","Talkau",4.88,514,254,260,105,"21493",10.569209,53.577157,"01053125",2013,0,10,0,0.0194552529182879
"01","Woltersdorf",7.9,308,158,150,39,"21516",10.639912,53.5768,"01053134",2013,0,10,0,0.0324675324675325
"01","Besenthal",12.65,83,45,38,7,"23899",10.743239,53.530139,"01053010",2013,0,1,0,0.0120481927710843
"01","Bröthen",10.69,278,140,138,26,"21514",10.667504,53.480409,"01053015",2013,0,7,0,0.0251798561151079
"01","Büchen",16.85,5694,2762,2932,338,"21514",10.616482,53.480926,"01053020",2013,0,170,12,0.0298559887600983
"01","Fitzen",9.11,348,181,167,38,"21514",10.64667,53.493942,"01053029",2013,0,8,0,0.0229885057471264
"01","Göttin",5.21,57,30,27,11,"21514",10.70332,53.533922,"01053035",2013,0,0,0,0
"01","Gudow",42.26,1625,802,823,38,"23899",10.771255,53.555807,"01053046",2013,0,37,0,0.0227692307692308
"01","Güster",7.78,1230,615,615,158,"21514",10.680583,53.53952,"01053048",2013,0,25,0,0.0203252032520325
"01","Klein Pampau",4.17,614,315,299,147,"21514",10.586656,53.512681,"01053064",2013,0,17,0,0.0276872964169381
"01","Langenlehsten",23.37,157,81,76,7,"21514",10.740373,53.499816,"01053080",2013,0,7,0,0.0445859872611465
"01","Müssen",11.46,984,492,492,86,"21516",10.562042,53.494949,"01053092",2013,0,24,2,0.024390243902439
"01","Roseburg",16.23,535,268,267,33,"21514",10.625016,53.531303,"01053104",2013,0,9,0,0.0168224299065421
"01","Schulendorf",11.39,459,233,226,40,"21516",10.561815,53.47331,"01053115",2013,0,7,0,0.0152505446623094
"01","Siebeneichen",4.68,265,131,134,57,"21514",10.618693,53.510828,"01053119",2013,0,11,0,0.0415094339622641
"01","Tramm",6.75,355,172,183,53,"21516",10.614693,53.563231,"01053126",2013,0,5,0,0.0140845070422535
"01","Witzeeze",10.46,861,382,479,82,"21514",10.610144,53.452652,"01053132",2013,0,17,1,0.0197444831591173
"01","Aumühle",3.47,3184,1496,1688,918,"21521",10.31337,53.528449,"01053003",2013,0,38,5,0.0119346733668342
"01","Börnsen",8.42,4381,2203,2178,520,"21039",10.285512,53.476625,"01053012",2013,0,86,7,0.0196302214106368
"01","Dassendorf",7.95,3170,1613,1557,399,"21521",10.372665,53.488608,"01053023",2013,0,56,2,0.0176656151419558
"01","Escheburg",8.91,3334,1664,1670,374,"21039",10.309429,53.46713,"01053028",2013,0,60,8,0.017996400719856
"01","Hamwarde",6.68,785,390,395,118,"21502",10.421397,53.452847,"01053050",2013,0,14,0,0.0178343949044586
"01","Hohenhorn",6.93,529,276,253,76,"21526",10.367641,53.475564,"01053053",2013,0,17,1,0.0321361058601134
"01","Kröppelshagen-Fahrendorf",8.37,1217,621,596,145,"21529",10.315197,53.488589,"01053072",2013,0,16,1,0.0131470829909614
"01","Wiershop",5.15,159,80,79,31,"21502",10.451895,53.442501,"01053131",2013,0,2,0,0.0125786163522013
"01","Wohltorf",5.97,2433,1196,1237,408,"21521",10.291254,53.517253,"01053133",2013,0,30,2,0.0123304562268804
"01","Worth",6.07,170,86,84,28,"21502",10.409895,53.467424,"01053135",2013,0,2,0,0.0117647058823529
"01","Basedow",7.47,659,345,314,88,"21483",10.583592,53.416151,"01053006",2013,0,25,1,0.0379362670713202
"01","Buchhorst",5.19,164,79,85,32,"21481",10.568335,53.384993,"01053019",2013,0,3,0,0.0182926829268293
"01","Dalldorf",6.05,367,189,178,61,"21483",10.610809,53.435819,"01053022",2013,0,10,0,0.0272479564032698
"01","Juliusburg",6.04,174,84,90,29,"21483",10.506484,53.41715,"01053058",2013,0,3,0,0.0172413793103448
"01","Krüzen",8.25,362,176,186,44,"21483",10.527113,53.401518,"01053073",2013,0,6,0,0.0165745856353591
"01","Krukow",7.94,154,79,75,19,"21483",10.478187,53.418864,"01053074",2013,0,2,0,0.012987012987013
"01","Lanze",9.05,281,139,142,31,"21483",10.604387,53.386341,"01053082",2013,0,7,1,0.0249110320284698
"01","Lütau",11.24,709,366,343,63,"21483",10.545404,53.435861,"01053087",2013,0,15,2,0.0211565585331453
"01","Schnakenbek",13.02,848,414,434,65,"21481",10.50018,53.385426,"01053111",2013,0,19,4,0.0224056603773585
"01","Wangelau",6.52,224,110,114,34,"21483",10.546476,53.453654,"01053128",2013,0,2,0,0.00892857142857143
"01","Albsfelde",4.18,72,34,38,17,"23909",10.694451,53.679957,"01053001",2013,0,1,0,0.0138888888888889
"01","Bäk",4.3,871,414,457,203,"23909",10.787081,53.716345,"01053004",2013,0,19,1,0.0218140068886338
"01","Brunsmark",4.29,149,74,75,35,"23883",10.750236,53.617106,"01053016",2013,0,4,0,0.0268456375838926
"01","Buchholz",2.93,230,114,116,78,"23911",10.745377,53.731393,"01053018",2013,0,1,0,0.00434782608695652
"01","Einhaus",2.53,379,187,192,150,"23911",10.725697,53.714136,"01053026",2013,0,7,0,0.0184696569920844
"01","Fredeburg",10.09,47,24,23,5,"23909",10.72758,53.674357,"01053030",2013,0,NA,NA,NA
"01","Giesensdorf",2.73,133,61,72,49,"23909",10.713651,53.688273,"01053033",2013,0,5,0,0.037593984962406
"01","Groß Disnack",5.99,83,42,41,14,"23911",10.69059,53.741974,"01053040",2013,0,1,0,0.0120481927710843
"01","Groß Grönau",4.9,3573,1740,1833,729,"23627",10.750476,53.801387,"01053041",2013,0,51,5,0.0142737195633921
"01","Groß Sarau",17.08,937,461,476,55,"23627",10.737505,53.771586,"01053043",2013,0,16,4,0.0170757737459979
"01","Harmsdorf",3.57,310,157,153,87,"23911",10.725868,53.700407,"01053051",2013,0,3,0,0.00967741935483871
"01","Hollenbek",7.21,426,228,198,59,"23883",10.819161,53.592192,"01053054",2013,0,16,0,0.0375586854460094
"01","Horst",11.93,221,115,106,19,"23883",10.771156,53.625103,"01053057",2013,0,3,0,0.0135746606334842
"01","Kittlitz",17.73,242,130,112,14,"23911",10.918869,53.664235,"01053062",2013,0,11,0,0.0454545454545455
"01","Klein Zecher",9.11,249,121,128,27,"23883",10.872803,53.577413,"01053066",2013,0,2,0,0.00803212851405622
"01","Kulpin",6.07,209,100,109,34,"23911",10.695812,53.71009,"01053078",2013,0,3,0,0.0143540669856459
"01","Mechow",4.43,114,58,56,26,"23909",10.801815,53.717556,"01053088",2013,0,3,0,0.0263157894736842
"01","Mustin",11.88,754,365,389,63,"23911",10.886235,53.68453,"01053093",2013,0,15,1,0.019893899204244
"01","Pogeez",4.51,381,191,190,84,"23911",10.729435,53.750929,"01053098",2013,0,10,0,0.026246719160105
"01","Römnitz",5.15,61,30,31,12,"23909",10.769068,53.710716,"01053102",2013,0,2,0,0.0327868852459016
"01","Salem",25.11,594,297,297,24,"23911",10.827965,53.656396,"01053107",2013,0,12,0,0.0202020202020202
"01","Schmilau",11.55,553,278,275,48,"23911",10.755985,53.664589,"01053110",2013,0,10,1,0.0180831826401447
"01","Seedorf",27.89,532,271,261,19,"23883",10.866843,53.619223,"01053117",2013,0,12,0,0.0225563909774436
"01","Sterley",21.39,915,457,458,43,"23883",10.817794,53.620149,"01053123",2013,0,26,2,0.0284153005464481
"01","Ziethen",11.18,998,487,511,89,"23911",10.809322,53.693695,"01053136",2013,0,11,2,0.0110220440881764
"01","Basthorst",10.82,406,203,203,38,"21493",10.47139,53.576616,"01053007",2013,0,7,0,0.0172413793103448
"01","Brunstorf",13.76,639,315,324,46,"21524",10.425938,53.491563,"01053017",2013,0,14,0,0.0219092331768388
"01","Dahmker",2.04,165,89,76,81,"22946",10.444516,53.587821,"01053021",2013,0,1,0,0.00606060606060606
"01","Elmenhorst",12.99,869,438,431,67,"21493",10.537551,53.544876,"01053027",2013,0,16,1,0.0184119677790564
"01","Fuhlenhagen",5.74,335,179,156,58,"21493",10.526645,53.573031,"01053031",2013,0,4,1,0.0119402985074627
"01","Grabau",4.1,311,154,157,76,"21493",10.519825,53.513609,"01053036",2013,0,6,0,0.0192926045016077
"01","Groß Pampau",4.32,147,73,74,34,"21493",10.55974,53.520192,"01053042",2013,0,5,0,0.0340136054421769
"01","Grove",5.28,252,126,126,48,"21493",10.492067,53.528123,"01053045",2013,0,9,0,0.0357142857142857
"01","Gülzow",17.07,1239,641,598,73,"21483",10.490939,53.442249,"01053047",2013,0,23,1,0.0185633575464084
"01","Hamfelde",3.47,466,218,248,134,"22929",10.44893,53.597194,"01053049",2013,0,4,0,0.00858369098712446
"01","Havekost",5.91,177,88,89,30,"21493",10.472892,53.539891,"01053052",2013,0,4,0,0.0225988700564972
"01","Kankelau",4.21,201,98,103,48,"21514",10.56832,53.549311,"01053059",2013,0,2,0,0.00995024875621891
"01","Kasseburg",7.89,587,288,299,74,"22929",10.415259,53.567317,"01053060",2013,0,10,0,0.0170357751277683
"01","Köthel",1.52,274,139,135,180,"22929",10.510002,53.606936,"01053070",2013,0,2,1,0.0072992700729927
"01","Kollow",8.21,588,284,304,72,"21527",10.458799,53.463155,"01053071",2013,0,11,0,0.0187074829931973
"01","Kuddewörde",7.34,1339,644,695,182,"22958",10.401901,53.587291,"01053076",2013,0,17,1,0.0126960418222554
"01","Möhnsen",7.48,540,274,266,72,"21493",10.469197,53.559974,"01053089",2013,0,10,0,0.0185185185185185
"01","Mühlenrade",3.74,176,87,89,47,"21493",10.48775,53.595838,"01053091",2013,0,5,0,0.0284090909090909
"01","Sahms",5.94,380,185,195,64,"21493",10.532891,53.527525,"01053106",2013,0,3,1,0.00789473684210526
"01","Duvensee",12.4,545,258,287,44,"23898",10.568,53.693065,"01053025",2013,0,14,1,0.0256880733944954
"01","Grinau",2.74,305,158,147,111,"23847",10.549747,53.775531,"01053038",2013,0,3,0,0.00983606557377049
"01","Groß Boden",2.7,197,103,94,73,"23847",10.452871,53.752713,"01053039",2013,0,8,0,0.0406091370558376
"01","Groß Schenkenberg",6.52,534,254,280,82,"23860",10.56488,53.793492,"01053044",2013,0,10,0,0.0187265917602996
"01","Klinkrade",7.4,612,296,316,83,"23898",10.55033,53.716092,"01053068",2013,0,12,0,0.0196078431372549
"01","Koberg",11.98,752,378,374,63,"23881",10.52596,53.639594,"01053069",2013,0,18,0,0.023936170212766
"01","Kühsen",7.28,364,175,189,50,"23898",10.615824,53.682661,"01053077",2013,0,5,0,0.0137362637362637
"01","Labenz",5.75,843,421,422,147,"23898",10.524596,53.708352,"01053079",2013,0,15,0,0.0177935943060498
"01","Lankau",19.12,476,239,237,25,"23881",10.665092,53.668023,"01053081",2013,0,14,0,0.0294117647058824
"01","Linau",9.66,1167,598,569,121,"22959",10.46755,53.643933,"01053085",2013,0,18,1,0.0154241645244216
"01","Lüchow",4.62,277,137,140,60,"23898",10.529518,53.690744,"01053086",2013,0,6,0,0.0216606498194946
"01","Nusse",6.22,1053,502,551,169,"23896",10.575979,53.65908,"01053096",2013,0,33,1,0.0313390313390313
"01","Panten",13.83,635,323,312,46,"23896",10.61977,53.664571,"01053097",2013,0,14,0,0.0220472440944882
"01","Poggensee",5.44,335,163,172,62,"23896",10.579621,53.640461,"01053099",2013,0,11,0,0.0328358208955224
"01","Ritzerau",11.11,275,136,139,25,"23896",10.567545,53.663003,"01053101",2013,0,5,0,0.0181818181818182
"01","Sandesneben",6.13,1721,870,851,281,"23898",10.497042,53.687957,"01053108",2013,0,34,2,0.0197559558396281
"01","Schiphorst",8.15,608,295,313,75,"23847",10.461627,53.708361,"01053109",2013,0,15,1,0.0246710526315789
"01","Schönberg",14.77,1391,701,690,94,"22929",10.433054,53.677154,"01053112",2013,0,29,1,0.0208483105679367
"01","Schürensöhlen",2.75,159,79,80,58,"23847",10.47204,53.763455,"01053114",2013,0,0,0,0
"01","Siebenbäumen",8.82,633,320,313,72,"23847",10.525768,53.749377,"01053118",2013,0,18,0,0.028436018957346
"01","Sirksfelde",8.63,322,167,155,37,"23898",10.509773,53.665339,"01053121",2013,0,7,0,0.0217391304347826
"01","Steinhorst",16.37,544,274,270,33,"23847",10.483141,53.720135,"01053122",2013,0,9,0,0.0165441176470588
"01","Stubben",5.24,374,178,196,71,"23847",10.43068,53.732928,"01053124",2013,0,8,0,0.0213903743315508
"01","Walksfelde",3.51,189,100,89,54,"23896",10.575101,53.631901,"01053127",2013,0,5,0,0.0264550264550265
"01","Wentorf (Amt Sandesneben)",4.99,689,343,346,138,"23898",10.474911,53.67663,"01053130",2013,0,11,0,0.0159651669085631
"01","Friedrichstadt, Stadt",4.03,2485,1169,1316,617,"25840",9.087943,54.37346,"01054033",2013,0,151,6,0.0607645875251509
"01","Husum, Stadt",25.81,22053,10449,11604,854,"25813",9.050149,54.476472,"01054056",2013,0,1405,126,0.0637101528136761
"01","Reußenköge",45.91,335,175,160,7,"25821",8.917982,54.602246,"01054108",2013,0,7,0,0.0208955223880597
"01","Tönning, Stadt",44.41,4887,2398,2489,110,"25832",8.94334,54.319739,"01054138",2013,0,243,17,0.0497237569060773
"01","Sylt",57.32,13424,6432,6992,234,"25980",8.323668,54.89326,"01054168",2013,0,359,50,0.0267431466030989
"01","Garding, Kirchspiel",14.89,380,179,201,26,"25836",8.791506,54.321856,"01054035",2013,0,3,0,0.00789473684210526
"01","Garding, Stadt",3.06,2536,1202,1334,829,"25836",8.778217,54.327962,"01054036",2013,0,141,2,0.0555993690851735
"01","Grothusenkoog",3.27,22,9,13,7,"25836",8.759033,54.302739,"01054040",2013,0,0,0,0
"01","Katharinenheerd",8.4,161,79,82,19,"25836",8.828074,54.335199,"01054063",2013,0,1,0,0.0062111801242236
"01","Kotzenbüll",7.77,228,115,113,29,"25832",8.907487,54.333778,"01054072",2013,0,10,0,0.043859649122807
"01","Norderfriedrichskoog",5.31,46,24,22,9,"25870",8.893583,54.400271,"01054090",2013,0,0,0,0
"01","Oldenswort",45.84,1232,633,599,27,"25870",8.942989,54.372281,"01054095",2013,0,44,2,0.0357142857142857
"01","Osterhever",18.46,226,116,110,12,"25836",8.765555,54.385462,"01054100",2013,0,2,0,0.00884955752212389
"01","Poppenbüll",15.52,234,120,114,15,"25836",8.761168,54.361585,"01054104",2013,0,2,0,0.00854700854700855
"01","Sankt Peter-Ording",28.32,3742,1753,1989,132,"25826",8.640495,54.302281,"01054113",2013,0,113,13,0.0301977552111171
"01","Tating",29.49,920,464,456,31,"25881",8.708512,54.325497,"01054134",2013,0,30,3,0.0326086956521739
"01","Tetenbüll",36.48,636,304,332,17,"25882",8.828234,54.352013,"01054135",2013,0,11,0,0.0172955974842767
"01","Tümlauer Koog",6.2,104,58,46,17,"25881",8.689757,54.348337,"01054140",2013,0,2,0,0.0192307692307692
"01","Vollerwiek",4.62,197,101,96,43,"25836",8.794694,54.290681,"01054145",2013,0,5,0,0.0253807106598985
"01","Welt",8.2,224,107,117,27,"25836",8.79406,54.302402,"01054148",2013,0,4,0,0.0178571428571429
"01","Westerhever",13.32,116,55,61,9,"25881",8.67563,54.382315,"01054150",2013,0,3,0,0.0258620689655172
"01","Hörnum (Sylt)",5.64,847,421,426,150,"25997",8.286546,54.7565,"01054046",2013,0,21,1,0.0247933884297521
"01","Kampen (Sylt)",8.42,485,233,252,58,"25999",8.342294,54.955508,"01054061",2013,0,7,2,0.0144329896907217
"01","List",18.47,1561,789,772,85,"25992",8.436183,55.020026,"01054078",2013,0,34,5,0.0217809096732864
"01","Wenningstedt-Braderup (Sylt)",6.16,1421,652,769,231,"25996",8.3405,54.937797,"01054149",2013,0,24,4,0.0168895144264602
"01","Ahrenviöl",10.11,519,271,248,51,"25885",9.206895,54.531254,"01054003",2013,0,24,0,0.046242774566474
"01","Ahrenviölfeld",7.29,225,99,126,31,"25885",9.27413,54.534769,"01054004",2013,0,10,0,0.0444444444444444
"01","Behrendorf",15.29,554,294,260,36,"25850",9.22759,54.562059,"01054011",2013,0,14,0,0.0252707581227437
"01","Bondelum",9.18,178,99,79,19,"25850",9.266891,54.556658,"01054013",2013,0,6,0,0.0337078651685393
"01","Haselund",12.79,898,467,431,70,"25855",9.182927,54.591703,"01054041",2013,0,27,0,0.0300668151447661
"01","Immenstedt",14.61,659,339,320,45,"25885",9.162503,54.541449,"01054057",2013,0,16,0,0.0242792109256449
"01","Löwenstedt",19.62,649,330,319,33,"25864",9.174887,54.621612,"01054079",2013,0,11,0,0.0169491525423729
"01","Norstedt",13.5,407,210,197,30,"25884",9.129369,54.588558,"01054092",2013,0,12,0,0.0294840294840295
"01","Oster-Ohrstedt",11.29,607,315,292,54,"25885",9.227445,54.514539,"01054101",2013,0,20,0,0.0329489291598023
"01","Schwesing",15.63,907,460,447,58,"25813",9.134622,54.493899,"01054118",2013,0,28,0,0.0308710033076075
"01","Sollwitt",10.95,293,152,141,27,"25884",9.228595,54.594738,"01054123",2013,0,6,0,0.0204778156996587
"01","Viöl",18.95,2156,1060,1096,114,"25884",9.18063,54.568958,"01054144",2013,0,70,0,0.0324675324675325
"01","Wester-Ohrstedt",18.54,1022,511,511,55,"25885",9.190063,54.507226,"01054152",2013,0,44,0,0.0430528375733855
"01","Gröde",2.52,9,4,5,4,"25869",8.717443,54.631686,"01054039",2013,0,NA,NA,NA
"01","Hallig Hooge",5.78,103,49,54,18,"25859",8.543775,54.568831,"01054050",2013,0,2,0,0.0194174757281553
"01","Langeneß",11.57,134,67,67,12,"25863",8.613192,54.637404,"01054074",2013,0,6,0,0.0447761194029851
"01","Pellworm",37.44,1161,545,616,31,"25849",8.656057,54.521284,"01054103",2013,0,21,0,0.0180878552971576
"01","Alkersum",9.07,414,194,220,46,"25938",8.511244,54.708245,"01054005",2013,0,11,1,0.0265700483091787
"01","Borgsum",5.51,356,180,176,65,"25938",8.460009,54.699989,"01054015",2013,0,3,0,0.00842696629213483
"01","Dunsum",2.72,70,34,36,26,"25938",8.414539,54.73043,"01054025",2013,0,1,0,0.0142857142857143
"01","Midlum",8.5,409,170,239,48,"25938",8.518625,54.714878,"01054083",2013,0,7,1,0.0171149144254279
"01","Nebel",11.96,934,431,503,78,"25946",8.35355,54.650916,"01054085",2013,0,14,1,0.0149892933618844
"01","Nieblum",7.86,567,268,299,72,"25938",8.489439,54.691947,"01054087",2013,0,14,0,0.0246913580246914
"01","Norddorf auf Amrum",5.9,575,274,301,97,"25946",8.332935,54.679638,"01054089",2013,0,17,1,0.0295652173913043
"01","Oevenum",10.87,454,216,238,42,"25938",8.530787,54.710093,"01054094",2013,0,14,0,0.0308370044052863
"01","Oldsum",13.31,534,238,296,40,"25938",8.448309,54.732399,"01054098",2013,0,6,0,0.0112359550561798
"01","Süderende",2.59,179,84,95,69,"25938",8.440415,54.726902,"01054129",2013,0,2,0,0.0111731843575419
"01","Utersum",5.26,424,192,232,81,"25938",8.407243,54.714455,"01054143",2013,0,8,1,0.0188679245283019
"01","Witsum",1.59,40,20,20,25,"25938",8.44106,54.698516,"01054158",2013,0,1,0,0.025
"01","Wittdün auf Amrum",2.6,738,333,405,284,"25946",8.395101,54.626651,"01054160",2013,0,23,2,0.0311653116531165
"01","Wrixum",7.55,650,308,342,86,"25938",8.548131,54.699417,"01054163",2013,0,14,1,0.0215384615384615
"01","Wyk auf Föhr, Stadt",8,4263,1954,2309,533,"25938",8.567212,54.691093,"01054164",2013,0,129,12,0.0302603800140746
"01","Achtrup",29.9,1493,775,718,50,"25917",9.028319,54.788981,"01054001",2013,0,44,0,0.02947086403215
"01","Aventoft",14.47,478,236,242,33,"25927",8.822142,54.901249,"01054009",2013,0,11,0,0.0230125523012552
"01","Bosbüll",6.33,194,92,102,31,"25899",8.860437,54.822786,"01054016",2013,0,6,0,0.0309278350515464
"01","Braderup",13.35,674,347,327,50,"25923",8.890293,54.835624,"01054017",2013,0,15,0,0.0222551928783383
"01","Bramstedtlund",13.85,206,103,103,15,"25926",9.086753,54.851613,"01054018",2013,0,6,0,0.029126213592233
"01","Dagebüll",36.92,912,460,452,25,"25899",8.706381,54.730209,"01054022",2013,0,22,1,0.0241228070175439
"01","Ellhöft",7.82,102,53,49,13,"25923",8.957602,54.888716,"01054027",2013,0,3,0,0.0294117647058824
"01","Friedrich-Wilhelm-Lübke-Koog",13.49,188,96,92,14,"25924",8.631939,54.862372,"01054034",2013,0,3,0,0.0159574468085106
"01","Holm",4,78,35,43,20,"25923",8.860525,54.831367,"01054048",2013,0,1,0,0.0128205128205128
"01","Humptrup",16.99,735,368,367,43,"25923",8.864538,54.863199,"01054055",2013,0,18,1,0.0244897959183673
"01","Karlum",14.46,208,105,103,14,"25926",8.975269,54.828646,"01054062",2013,0,4,0,0.0192307692307692
"01","Klanxbüll",10.63,939,444,495,88,"25924",8.679184,54.864429,"01054065",2013,0,25,1,0.0266240681576145
"01","Klixbüll",17.44,965,510,455,55,"25899",8.882448,54.805242,"01054068",2013,0,31,2,0.0321243523316062
"01","Ladelund",24.09,1384,684,700,57,"25926",9.025311,54.84075,"01054073",2013,0,44,2,0.0317919075144509
"01","Leck",29.79,7585,3662,3923,255,"25917",8.974572,54.771914,"01054076",2013,0,369,19,0.0486486486486487
"01","Lexgaard",5.24,56,32,24,11,"25923",8.943493,54.832022,"01054077",2013,0,4,0,0.0714285714285714
"01","Neukirchen",31.58,1190,591,599,38,"25927",8.73388,54.868905,"01054086",2013,0,42,0,0.0352941176470588
"01","Niebüll, Stadt",30.63,9715,4637,5078,317,"25899",8.829499,54.788141,"01054088",2013,0,353,40,0.0363355635615028
"01","Risum-Lindholm",36.03,3630,1817,1813,101,"25920",8.860834,54.758552,"01054109",2013,0,93,1,0.0256198347107438
"01","Rodenäs",19.84,424,215,209,21,"25924",8.70031,54.888387,"01054110",2013,0,11,0,0.0259433962264151
"01","Sprakebüll",11.37,227,117,110,20,"25917",9.076637,54.776472,"01054124",2013,0,8,1,0.0352422907488987
"01","Stadum",19.74,993,531,462,50,"25917",9.050473,54.736011,"01054125",2013,0,31,1,0.0312185297079557
"01","Stedesand",15.19,883,441,442,58,"25920",8.9217,54.738668,"01054126",2013,0,17,0,0.0192525481313703
"01","Süderlügum",26.59,2319,1141,1178,87,"25923",8.907944,54.872427,"01054131",2013,0,67,3,0.0288917636912462
"01","Tinningstedt",8.91,243,117,126,27,"25917",8.929787,54.811247,"01054136",2013,0,8,0,0.0329218106995885
"01","Uphusum",7.06,387,190,197,55,"25923",8.84998,54.841858,"01054142",2013,0,6,0,0.0155038759689922
"01","Westre",19.13,373,179,194,19,"25926",8.986697,54.855213,"01054154",2013,0,6,0,0.0160857908847185
"01","Galmsbüll",49.05,638,331,307,13,"25899",8.768821,54.76664,"01054165",2013,0,17,0,0.0266457680250784
"01","Emmelsbüll-Horsbüll",35.73,930,474,456,26,"25924",8.684788,54.821848,"01054166",2013,0,38,3,0.0408602150537634
"01","Enge-Sande",24.82,1104,550,554,44,"25917",8.969842,54.733387,"01054167",2013,0,25,0,0.0226449275362319
"01","Arlewatt",5.57,335,185,150,60,"25860",9.083426,54.539223,"01054007",2013,0,6,0,0.017910447761194
"01","Drage",16.33,621,278,343,38,"25878",9.162165,54.353897,"01054023",2013,0,13,0,0.0209339774557166
"01","Elisabeth-Sophien-Koog",5.18,43,22,21,8,"25845",8.879209,54.510202,"01054026",2013,0,1,0,0.0232558139534884
"01","Fresendelf",2.6,93,56,37,36,"25876",9.248765,54.39338,"01054032",2013,0,4,0,0.043010752688172
"01","Hattstedt",7,2546,1250,1296,364,"25856",9.024735,54.528074,"01054042",2013,0,68,1,0.0267085624509034
"01","Hattstedtermarsch",35.26,300,162,138,9,"25856",8.975187,54.548738,"01054043",2013,0,7,0,0.0233333333333333
"01","Horstedt",11.7,755,387,368,65,"25860",9.069281,54.525408,"01054052",2013,0,20,0,0.0264900662251656
"01","Hude",3.54,189,98,91,53,"25876",9.215821,54.387212,"01054054",2013,0,4,0,0.0211640211640212
"01","Koldenbüttel",25.8,918,466,452,36,"25840",9.06819,54.385117,"01054070",2013,0,25,3,0.0272331154684096
"01","Mildstedt",8.71,3810,1804,2006,437,"25866",9.094038,54.463492,"01054084",2013,0,90,2,0.0236220472440945
"01","Nordstrand",57.21,2206,1068,1138,39,"25845",8.868067,54.48718,"01054091",2013,0,67,1,0.0303717135086129
"01","Oldersbek",10.82,655,355,300,61,"25873",9.168624,54.446541,"01054096",2013,0,26,0,0.0396946564885496
"01","Olderup",9.94,442,224,218,44,"25860",9.112117,54.538176,"01054097",2013,0,16,1,0.0361990950226244
"01","Ostenfeld (Husum)",27.67,1538,731,807,56,"25872",9.230675,54.462866,"01054099",2013,0,43,1,0.0279583875162549
"01","Ramstedt",5.42,422,211,211,78,"25876",9.167101,54.399905,"01054105",2013,0,9,1,0.0213270142180095
"01","Rantrum",13.69,1775,878,897,130,"25873",9.129606,54.44052,"01054106",2013,0,48,0,0.0270422535211268
"01","Schwabstedt",19.64,1320,655,665,67,"25876",9.185238,54.395651,"01054116",2013,0,46,1,0.0348484848484849
"01","Seeth",13.56,585,295,290,43,"25878",9.163158,54.36593,"01054119",2013,0,20,1,0.0341880341880342
"01","Simonsberg",17.09,780,385,395,46,"25813",8.972074,54.436645,"01054120",2013,0,28,0,0.0358974358974359
"01","Süderhöft",2.6,20,8,12,8,"25876",9.24249,54.381734,"01054130",2013,0,NA,NA,NA
"01","Südermarsch",30.23,167,90,77,6,"25813",9.082171,54.425755,"01054132",2013,0,5,0,0.029940119760479
"01","Uelvesbüll",10.23,286,145,141,28,"25889",8.935322,54.415443,"01054141",2013,0,6,0,0.020979020979021
"01","Winnert",18.88,706,351,355,37,"25887",9.201381,54.433243,"01054156",2013,0,25,1,0.0354107648725212
"01","Wisch",3.05,110,56,54,36,"25876",9.154149,54.408531,"01054157",2013,0,2,0,0.0181818181818182
"01","Wittbek",19.91,792,398,394,40,"25872",9.204139,54.473433,"01054159",2013,0,24,0,0.0303030303030303
"01","Witzwort",28.14,1029,520,509,37,"25889",8.984464,54.399484,"01054161",2013,0,33,0,0.032069970845481
"01","Wobbenbüll",1.69,457,232,225,270,"25856",8.992696,54.530479,"01054162",2013,0,7,1,0.0153172866520788
"01","Ahrenshöft",8.79,506,252,254,58,"25853",9.069987,54.564132,"01054002",2013,0,10,1,0.0197628458498024
"01","Almdorf",5.7,545,284,261,96,"25821",9.016496,54.579116,"01054006",2013,0,22,0,0.0403669724770642
"01","Bargum",17.29,594,300,294,34,"25842",8.962782,54.705069,"01054010",2013,0,13,0,0.0218855218855219
"01","Bohmstedt",13.35,743,375,368,56,"25853",9.043841,54.581229,"01054012",2013,0,22,1,0.0296096904441454
"01","Bordelum",34.71,1978,987,991,57,"25852",8.924942,54.636032,"01054014",2013,0,78,2,0.0394337714863498
"01","Bredstedt, Stadt",9.75,5115,2488,2627,525,"25821",8.960958,54.620073,"01054019",2013,0,237,5,0.0463343108504399
"01","Breklum",10.06,2343,1136,1207,233,"25821",8.982127,54.605121,"01054020",2013,0,62,0,0.0264618011096884
"01","Drelsdorf",17.7,1225,630,595,69,"25853",9.039521,54.605859,"01054024",2013,0,35,0,0.0285714285714286
"01","Goldebek",10.18,341,168,173,33,"25862",9.145764,54.678916,"01054037",2013,0,8,0,0.0234604105571848
"01","Goldelund",12.02,386,188,198,32,"25862",9.106857,54.678719,"01054038",2013,0,16,0,0.0414507772020725
"01","Högel",16.28,454,224,230,28,"25858",9.057965,54.643092,"01054045",2013,0,9,0,0.0198237885462555
"01","Joldelund",19.12,743,380,363,39,"25862",9.135944,54.653712,"01054059",2013,0,19,1,0.0255720053835801
"01","Kolkerheide",2.1,49,25,24,23,"25862",9.130775,54.620407,"01054071",2013,0,0,0,0
"01","Langenhorn",47.4,3104,1521,1583,65,"25842",8.926359,54.67606,"01054075",2013,0,100,1,0.0322164948453608
"01","Lütjenholm",10.71,317,170,147,30,"25842",9.021561,54.684136,"01054080",2013,0,10,1,0.0315457413249211
"01","Ockholm",18.64,319,167,152,17,"25842",8.827553,54.665128,"01054093",2013,0,9,0,0.0282131661442006
"01","Sönnebüll",4.29,279,135,144,65,"25821",8.995459,54.630955,"01054121",2013,0,10,0,0.03584229390681
"01","Struckum",8.92,953,476,477,107,"25821",8.994073,54.588682,"01054128",2013,0,22,0,0.0230849947534103
"01","Vollstedt",6.18,186,93,93,30,"25821",9.032722,54.623717,"01054146",2013,0,4,0,0.021505376344086
"01","Ahrensbök",95.37,8222,4038,4184,86,"23623",10.573059,54.011094,"01055001",2013,0,291,8,0.0353928484553637
"01","Bad Schwartau, Stadt",18.39,19682,9134,10548,1070,"23611",10.695909,53.920431,"01055004",2013,0,502,52,0.0255055380550757
"01","Bosau",64.25,3443,1760,1683,54,"23715",10.429901,54.104439,"01055007",2013,0,131,2,0.0380482137670636
"01","Dahme",9.11,1280,611,669,141,"23743",11.08163,54.223661,"01055010",2013,0,45,4,0.03515625
"01","Eutin, Stadt",41.4,16769,7830,8939,405,"23701",10.614692,54.138856,"01055012",2013,0,810,50,0.0483034170195003
"01","Grömitz",51.1,6913,3318,3595,135,"23743",10.961101,54.149249,"01055016",2013,0,259,30,0.0374656444380153
"01","Grube",20.2,991,466,525,49,"23743",11.03599,54.23209,"01055018",2013,0,34,0,0.0343087790110999
"01","Heiligenhafen, Stadt",18.32,9072,4372,4700,495,"23774",10.974623,54.373048,"01055021",2013,0,358,20,0.0394620811287478
"01","Kellenhusen (Ostsee)",8.17,1037,486,551,127,"23743",11.060024,54.190749,"01055025",2013,0,44,6,0.0424300867888139
"01","Malente",69.06,10410,5025,5385,151,"23714",10.554871,54.171225,"01055028",2013,0,481,29,0.0462055715658021
"01","Neustadt in Holstein, Stadt",19.74,14887,7008,7879,754,"23730",10.816351,54.10563,"01055032",2013,0,516,53,0.0346611137233828
"01","Oldenburg in Holstein, Stadt",39.68,9766,4773,4993,246,"23758",10.888426,54.293148,"01055033",2013,0,349,37,0.0357362277288552
"01","Ratekau",59.61,15132,7319,7813,254,"23626",10.735075,53.947822,"01055035",2013,0,397,15,0.0262357916997092
"01","Stockelsdorf",56.7,16543,8047,8496,292,"23617",10.649799,53.889315,"01055040",2013,0,337,20,0.020371153962401
"01","Süsel",75.31,5273,2610,2663,70,"23701",10.717998,54.076679,"01055041",2013,0,142,5,0.0269296415702636
"01","Timmendorfer Strand",20.13,8769,4125,4644,436,"23669",10.771082,53.995741,"01055042",2013,0,252,26,0.0287375983578515
"01","Scharbeutz",52.63,10716,5197,5519,204,"23683",10.750232,54.022793,"01055044",2013,0,308,28,0.0287420679357969
"01","Fehmarn, Stadt",185.48,12410,6064,6346,67,"23769",11.120129,54.478246,"01055046",2013,0,454,34,0.0365834004834811
"01","Göhl",21.2,1147,572,575,54,"23758",10.941851,54.284726,"01055014",2013,0,35,1,0.030514385353095
"01","Gremersdorf",45.76,1472,763,709,32,"23758",10.927673,54.332831,"01055015",2013,0,44,4,0.0298913043478261
"01","Großenbrode",20.98,2076,961,1115,99,"23775",11.08427,54.369696,"01055017",2013,0,54,1,0.0260115606936416
"01","Heringsdorf",29.42,1095,555,540,37,"23777",11.003697,54.300432,"01055022",2013,0,41,2,0.0374429223744292
"01","Neukirchen",28.5,1190,602,588,42,"23779",11.015153,54.323811,"01055031",2013,0,40,1,0.0336134453781513
"01","Wangels",67.12,2172,1108,1064,32,"23758",10.763598,54.271569,"01055043",2013,0,62,0,0.0285451197053407
"01","Beschendorf",8.54,535,248,287,63,"23738",10.873043,54.182743,"01055006",2013,0,18,0,0.0336448598130841
"01","Damlos",9.35,646,313,333,69,"23738",10.907708,54.243016,"01055011",2013,0,11,1,0.0170278637770898
"01","Harmsdorf",17.82,677,337,340,38,"23738",10.828832,54.243561,"01055020",2013,0,19,1,0.0280649926144756
"01","Kabelhorst",5.74,430,193,237,75,"23738",10.921118,54.215844,"01055023",2013,0,8,0,0.0186046511627907
"01","Lensahn",27.7,4960,2366,2594,179,"23738",10.883304,54.217545,"01055027",2013,0,202,10,0.0407258064516129
"01","Manhagen",9.63,382,192,190,40,"23738",10.913686,54.194999,"01055029",2013,0,13,0,0.0340314136125654
"01","Riepsdorf",25.81,970,495,475,38,"23738",10.969732,54.22536,"01055036",2013,0,34,0,0.0350515463917526
"01","Altenkrempe",36.64,1087,542,545,30,"23730",10.825665,54.13298,"01055002",2013,0,19,0,0.0174793008279669
"01","Kasseedorf",33.77,1452,733,719,43,"23717",10.719867,54.164965,"01055024",2013,0,32,0,0.0220385674931129
"01","Schashagen",41.46,2169,1079,1090,52,"23730",10.883528,54.134271,"01055037",2013,0,61,2,0.0281235592438912
"01","Schönwalde am Bungsberg",39.06,2530,1248,1282,65,"23744",10.753453,54.187361,"01055038",2013,0,55,1,0.0217391304347826
"01","Sierksdorf",19.5,1530,749,781,78,"23730",10.768366,54.066261,"01055039",2013,0,31,2,0.0202614379084967
"01","Barmstedt, Stadt",17.17,10068,4911,5157,586,"25355",9.768595,53.790385,"01056002",2013,0,295,33,0.029300754866905
"01","Bönningstedt",12.05,4467,2194,2273,371,"25474",9.906377,53.662388,"01056005",2013,0,74,6,0.0165659279158272
"01","Elmshorn, Stadt",21.37,47667,23059,24608,2231,"25335",9.655259,53.754958,"01056015",2013,0,2348,542,0.049258396794428
"01","Halstenbek",12.58,16736,8079,8657,1330,"25469",9.837557,53.633617,"01056018",2013,0,329,31,0.0196582217973231
"01","Hasloh",11.07,3332,1604,1728,301,"25474",9.91173,53.694023,"01056021",2013,0,52,2,0.0156062424969988
"01","Helgoland",4.2,1356,662,694,323,"27498",7.889064,54.181505,"01056025",2013,0,61,8,0.0449852507374631
"01","Pinneberg, Stadt",21.54,42055,20311,21744,1952,"25421",9.793233,53.660754,"01056039",2013,0,1483,373,0.0352633456188325
"01","Quickborn, Stadt",43.17,20042,9773,10269,464,"25451",9.898034,53.728836,"01056041",2013,0,419,54,0.0209060971958886
"01","Rellingen",13.18,13691,6725,6966,1039,"25462",9.829654,53.652131,"01056043",2013,0,267,26,0.0195018625374333
"01","Schenefeld, Stadt",9.99,18672,9126,9546,1869,"22869",9.822462,53.600982,"01056044",2013,0,444,72,0.0237789203084833
"01","Tornesch, Stadt",20.61,12586,6139,6447,611,"25436",9.718707,53.698257,"01056048",2013,0,306,41,0.0243127284284125
"01","Uetersen, Stadt",11.43,17662,8605,9057,1545,"25436",9.662396,53.684196,"01056049",2013,0,708,125,0.0400860604688031
"01","Wedel, Stadt",33.82,32289,15544,16745,955,"22880",9.705419,53.577353,"01056050",2013,0,1012,239,0.0313419430765896
"01","Klein Nordende",10.79,3136,1561,1575,291,"25336",9.654218,53.719569,"01056029",2013,0,45,1,0.0143494897959184
"01","Klein Offenseth-Sparrieshoop",16.92,2934,1455,1479,173,"25365",9.690397,53.804948,"01056030",2013,0,54,2,0.0184049079754601
"01","Kölln-Reisiek",6.77,3071,1497,1574,454,"25337",9.70509,53.759232,"01056031",2013,0,50,5,0.0162813415825464
"01","Seester",11.57,938,467,471,81,"25370",9.598071,53.717709,"01056033",2013,0,16,1,0.0170575692963753
"01","Raa-Besenbek",12.99,563,269,294,43,"25335",9.597611,53.747963,"01056042",2013,0,10,0,0.0177619893428064
"01","Seestermühe",23.35,944,472,472,40,"25371",9.56628,53.704049,"01056045",2013,0,10,1,0.0105932203389831
"01","Seeth-Ekholt",6.89,834,418,416,121,"25337",9.733304,53.736948,"01056046",2013,0,20,0,0.0239808153477218
"01","Haselau",18.88,1059,514,545,56,"25489",9.623636,53.660647,"01056019",2013,0,13,2,0.012275731822474
"01","Haseldorf",18.08,1736,871,865,96,"25489",9.598383,53.635207,"01056020",2013,0,24,0,0.0138248847926267
"01","Hetlingen",24.1,1308,640,668,54,"25491",9.635425,53.607669,"01056027",2013,0,23,1,0.0175840978593272
"01","Bokel",16.02,637,321,316,40,"25364",9.733886,53.864194,"01056006",2013,0,12,0,0.0188383045525903
"01","Brande-Hörnerkirchen",13.14,1618,812,806,123,"25364",9.714073,53.853496,"01056010",2013,0,36,0,0.0222496909765142
"01","Osterhorn",6.38,404,195,209,63,"25364",9.698588,53.868679,"01056038",2013,0,12,0,0.0297029702970297
"01","Westerhorn",9.37,1317,645,672,141,"25364",9.682011,53.857844,"01056051",2013,0,29,1,0.0220197418375095
"01","Appen",20.28,4871,2371,2500,240,"25482",9.742706,53.659806,"01056001",2013,0,82,6,0.0168343256004927
"01","Groß Nordende",5.64,774,372,402,137,"25436",9.649515,53.70207,"01056016",2013,0,17,3,0.0219638242894057
"01","Heidgraben",5.38,2528,1296,1232,470,"25436",9.680783,53.708552,"01056023",2013,0,35,3,0.0138449367088608
"01","Heist",9.96,2828,1432,1396,284,"25492",9.656576,53.654819,"01056024",2013,0,45,1,0.0159123055162659
"01","Holm",16.05,3112,1542,1570,194,"25488",9.671854,53.622062,"01056028",2013,0,50,2,0.0160668380462725
"01","Moorrege",10.76,4022,1985,2037,374,"25436",9.659074,53.668054,"01056036",2013,0,64,2,0.0159124813525609
"01","Neuendeich",8.54,524,247,277,61,"25436",9.600258,53.676281,"01056037",2013,0,4,0,0.00763358778625954
"01","Bevern",8.04,605,299,306,75,"25355",9.771042,53.755719,"01056003",2013,0,9,0,0.0148760330578512
"01","Bilsen",6.2,735,369,366,119,"25485",9.875975,53.770029,"01056004",2013,0,16,1,0.0217687074829932
"01","Bokholt-Hanredder",8.56,1202,623,579,140,"25335",9.727312,53.781752,"01056008",2013,0,20,1,0.0166389351081531
"01","Bullenkuhlen",3.94,359,191,168,91,"25355",9.751552,53.768586,"01056011",2013,0,6,0,0.0167130919220056
"01","Ellerhoop",10.8,1439,712,727,133,"25373",9.770845,53.727623,"01056014",2013,0,26,1,0.0180681028492008
"01","Groß Offenseth-Aspern",10.56,403,238,165,38,"25355",9.732346,53.817163,"01056017",2013,0,10,0,0.0248138957816377
"01","Heede",15.48,691,352,339,45,"25355",9.802298,53.783499,"01056022",2013,0,11,0,0.0159189580318379
"01","Hemdingen",16.42,1631,793,838,99,"25485",9.836641,53.755234,"01056026",2013,0,28,1,0.0171673819742489
"01","Langeln",10.28,537,287,250,52,"25485",9.853797,53.79393,"01056034",2013,0,10,2,0.0186219739292365
"01","Lutzhorn",21.72,780,402,378,36,"25355",9.783478,53.827342,"01056035",2013,0,12,0,0.0153846153846154
"01","Borstel-Hohenraden",14.88,2322,1155,1167,156,"25494",9.820331,53.689503,"01056009",2013,0,38,2,0.016365202411714
"01","Ellerbek",9.11,4143,2070,2073,455,"25474",9.869465,53.657165,"01056013",2013,0,73,7,0.0176200820661357
"01","Kummerfeld",6.5,2157,1057,1100,332,"25495",9.791036,53.691612,"01056032",2013,0,32,3,0.0148354195642095
"01","Prisdorf",5.23,2207,1084,1123,422,"25497",9.761607,53.678151,"01056040",2013,0,40,4,0.0181241504304486
"01","Tangstedt",12.52,2231,1121,1110,178,"25499",9.849699,53.679247,"01056047",2013,0,35,3,0.0156880322725235
"01","Bönebüttel",20.4,2022,967,1055,99,"24620",10.0593,54.079505,"01057008",2013,0,34,0,0.0168150346191889
"01","Plön, Stadt",36.73,8647,4082,4565,235,"24306",10.416369,54.158288,"01057057",2013,0,386,45,0.0446397594541459
"01","Preetz, Stadt",14.4,15526,7352,8174,1078,"24211",10.280512,54.231866,"01057062",2013,0,604,44,0.0389024861522607
"01","Schwentinental, Stadt",17.82,13408,6451,6957,752,"24223",10.232251,54.292024,"01057091",2013,0,265,24,0.0197643198090692
"01","Behrensdorf (Ostsee)",20.85,608,298,310,29,"24321",10.603736,54.346515,"01057004",2013,0,10,0,0.0164473684210526
"01","Blekendorf",38.34,1680,827,853,44,"24327",10.650894,54.276459,"01057007",2013,0,54,0,0.0321428571428571
"01","Dannau",9.12,642,323,319,70,"24329",10.541132,54.240905,"01057013",2013,0,11,0,0.0171339563862928
"01","Giekau",32.8,1059,527,532,32,"24321",10.506159,54.317441,"01057021",2013,0,34,0,0.0321057601510859
"01","Helmstorf",12.73,322,161,161,25,"24321",10.593478,54.286644,"01057026",2013,0,6,0,0.0186335403726708
"01","Högsdorf",10.92,417,209,208,38,"24327",10.615055,54.251994,"01057027",2013,0,10,0,0.0239808153477218
"01","Hohenfelde",10.54,1022,525,497,97,"24257",10.496402,54.370898,"01057029",2013,0,41,0,0.0401174168297456
"01","Hohwacht (Ostsee)",8.77,864,403,461,99,"24321",10.67371,54.320922,"01057030",2013,0,20,0,0.0231481481481481
"01","Kirchnüchel",10.09,190,99,91,19,"23714",10.680134,54.20411,"01057034",2013,0,6,0,0.0315789473684211
"01","Klamp",9.72,712,362,350,73,"24321",10.534124,54.296417,"01057035",2013,0,26,2,0.0365168539325843
"01","Kletkamp",11.52,100,49,51,9,"24327",10.638094,54.249088,"01057038",2013,0,5,0,0.05
"01","Lütjenburg, Stadt",6.15,5341,2561,2780,868,"24321",10.592237,54.294852,"01057048",2013,0,277,16,0.0518629470136679
"01","Panker",22.76,1446,698,748,64,"24321",10.573095,54.33034,"01057055",2013,0,39,0,0.0269709543568465
"01","Schwartbuck",13.15,785,383,402,60,"24257",10.478063,54.358264,"01057076",2013,0,28,1,0.0356687898089172
"01","Tröndel",7.58,375,182,193,49,"24321",10.514076,54.342356,"01057082",2013,0,6,0,0.016
"01","Ascheberg (Holstein)",20.93,3044,1451,1593,145,"24326",10.341108,54.151075,"01057001",2013,0,92,4,0.0302233902759527
"01","Bösdorf",21.1,1323,646,677,63,"24306",10.490762,54.14153,"01057009",2013,0,41,1,0.0309901738473167
"01","Dersau",7.51,851,410,441,113,"24326",10.33594,54.118055,"01057015",2013,0,22,0,0.0258519388954172
"01","Dörnick",4.3,258,120,138,60,"24326",10.360375,54.163392,"01057017",2013,0,5,0,0.0193798449612403
"01","Grebin",24.14,921,449,472,38,"24329",10.494272,54.195932,"01057022",2013,0,20,0,0.0217155266015201
"01","Kalübbe",11.8,571,290,281,48,"24326",10.283107,54.118146,"01057032",2013,0,19,0,0.0332749562171629
"01","Lebrade",18.59,599,295,304,32,"24306",10.422164,54.216652,"01057045",2013,0,9,0,0.015025041736227
"01","Nehmten",22.04,283,146,137,13,"24326",10.393262,54.094848,"01057053",2013,0,8,0,0.0282685512367491
"01","Rantzau",16.91,335,174,161,20,"24321",10.507361,54.253869,"01057065",2013,0,8,0,0.0238805970149254
"01","Rathjensdorf",11.79,493,248,245,42,"24306",10.427748,54.185702,"01057067",2013,0,11,0,0.0223123732251521
"01","Wittmoldt",5.71,161,76,85,28,"24306",10.349133,54.174882,"01057089",2013,0,1,0,0.0062111801242236
"01","Barmissen",5.15,141,69,72,27,"24245",10.175384,54.204995,"01057002",2013,0,2,0,0.0141843971631206
"01","Boksee",5.53,439,213,226,79,"24220",10.127708,54.242982,"01057010",2013,0,9,0,0.020501138952164
"01","Bothkamp",13.85,271,139,132,20,"24250",10.134422,54.203356,"01057011",2013,0,6,0,0.022140221402214
"01","Großbarkau",2.93,197,92,105,67,"24245",10.169008,54.225363,"01057023",2013,0,7,0,0.0355329949238579
"01","Honigsee",11.27,461,224,237,41,"24211",10.187224,54.228283,"01057031",2013,0,8,0,0.017353579175705
"01","Kirchbarkau",2.16,767,362,405,355,"24245",10.142365,54.211515,"01057033",2013,0,9,0,0.0117340286831812
"01","Klein Barkau",4.19,256,127,129,61,"24245",10.135269,54.222719,"01057037",2013,0,4,0,0.015625
"01","Kühren",16.81,655,335,320,39,"24211",10.258367,54.198376,"01057042",2013,0,13,1,0.0198473282442748
"01","Lehmkuhlen",31.26,1349,690,659,43,"24211",10.360709,54.226974,"01057046",2013,0,34,0,0.0252038547071905
"01","Löptin",9.08,294,146,148,32,"24250",10.215744,54.175217,"01057047",2013,0,6,1,0.0204081632653061
"01","Nettelsee",6.47,426,205,221,66,"24250",10.189086,54.174112,"01057054",2013,0,8,1,0.0187793427230047
"01","Pohnsdorf",24.62,442,213,229,18,"24211",10.249321,54.239647,"01057058",2013,0,12,0,0.0271493212669683
"01","Postfeld",8.33,457,235,222,55,"24211",10.21641,54.211309,"01057059",2013,0,6,0,0.0131291028446389
"01","Rastorf",20.01,852,422,430,43,"24211",10.289064,54.272603,"01057066",2013,0,24,1,0.028169014084507
"01","Schellhorn",10.54,1536,745,791,146,"24211",10.299476,54.227597,"01057070",2013,0,19,0,0.0123697916666667
"01","Wahlstorf",14.83,485,243,242,33,"24211",10.294716,54.178083,"01057084",2013,0,8,0,0.0164948453608247
"01","Warnau",3.98,365,177,188,92,"24250",10.160154,54.18792,"01057086",2013,0,8,1,0.0219178082191781
"01","Barsbek",8.73,558,280,278,64,"24217",10.320134,54.404132,"01057003",2013,0,18,0,0.032258064516129
"01","Bendfeld",4.41,210,91,119,48,"24217",10.419437,54.364157,"01057006",2013,0,5,0,0.0238095238095238
"01","Brodersdorf",3.63,416,201,215,115,"24235",10.249254,54.385481,"01057012",2013,0,10,2,0.0240384615384615
"01","Fahren",3.6,129,64,65,36,"24253",10.33813,54.349552,"01057018",2013,0,4,1,0.0310077519379845
"01","Fiefbergen",5.8,560,280,280,97,"24217",10.34277,54.379311,"01057020",2013,0,11,0,0.0196428571428571
"01","Höhndorf",5.63,400,195,205,71,"24217",10.370674,54.372619,"01057028",2013,0,9,0,0.0225
"01","Köhn",13.16,828,422,406,63,"24257",10.455111,54.34444,"01057039",2013,0,13,0,0.0157004830917874
"01","Krokau",4.45,423,211,212,95,"24217",10.341593,54.402446,"01057040",2013,0,16,0,0.0378250591016548
"01","Krummbek",5.48,418,209,209,76,"24217",10.400709,54.37814,"01057041",2013,0,12,0,0.0287081339712919
"01","Laboe",5.23,4912,2352,2560,939,"24235",10.224323,54.404031,"01057043",2013,0,135,9,0.0274837133550489
"01","Lutterbek",3.23,362,186,176,112,"24235",10.276816,54.391952,"01057049",2013,0,4,0,0.0110497237569061
"01","Passade",4.32,347,173,174,80,"24253",10.316786,54.366581,"01057056",2013,0,3,0,0.00864553314121038
"01","Prasdorf",4.77,457,226,231,96,"24253",10.296264,54.378679,"01057060",2013,0,6,0,0.0131291028446389
"01","Probsteierhagen",14.95,2017,994,1023,135,"24253",10.288376,54.362604,"01057063",2013,0,52,2,0.0257808626673277
"01","Schönberg (Holstein)",11.64,6042,2858,3184,519,"24217",10.372476,54.39239,"01057073",2013,0,205,10,0.0339291625289639
"01","Stakendorf",7.97,466,230,236,58,"24217",10.422791,54.388445,"01057078",2013,0,8,0,0.0171673819742489
"01","Stein",3.81,783,384,399,206,"24235",10.269063,54.414679,"01057079",2013,0,12,1,0.0153256704980843
"01","Stoltenberg",7.78,294,140,154,38,"24256",10.346508,54.344759,"01057081",2013,0,6,0,0.0204081632653061
"01","Wendtorf",5.12,997,511,486,195,"24235",10.290175,54.40976,"01057087",2013,0,15,0,0.0150451354062187
"01","Wisch",9.18,704,348,356,77,"24217",10.344245,54.411033,"01057088",2013,0,16,0,0.0227272727272727
"01","Dobersdorf",21.91,1097,535,562,50,"24232",10.281513,54.31849,"01057016",2013,0,22,0,0.0200546946216955
"01","Lammershagen",25.97,270,137,133,10,"24238",10.443923,54.274509,"01057044",2013,0,12,0,0.0444444444444444
"01","Martensrade",19.53,985,488,497,50,"24238",10.392528,54.279612,"01057050",2013,0,24,2,0.0243654822335025
"01","Mucheln",14.28,566,285,281,40,"24238",10.442687,54.246421,"01057052",2013,0,16,0,0.0282685512367491
"01","Schlesen",7.99,521,248,273,65,"24256",10.328605,54.321544,"01057072",2013,0,13,0,0.0249520153550864
"01","Selent",4.33,1316,659,657,304,"24238",10.425868,54.290473,"01057077",2013,0,46,2,0.0349544072948328
"01","Fargau-Pratjau",23.53,759,391,368,32,"24256",10.396264,54.327553,"01057090",2013,0,23,0,0.0303030303030303
"01","Heikendorf",14.72,8096,3778,4318,550,"24226",10.207126,54.371303,"01057025",2013,0,143,10,0.0176630434782609
"01","Mönkeberg",2.78,3961,1876,2085,1425,"24226",10.187105,54.348118,"01057051",2013,0,70,7,0.0176723049734915
"01","Schönkirchen",15.95,6300,3062,3238,395,"24226",10.223696,54.336531,"01057074",2013,0,159,16,0.0252380952380952
"01","Belau",14.89,366,183,183,25,"24601",10.260124,54.097439,"01057005",2013,0,6,0,0.0163934426229508
"01","Großharrie",13.16,526,263,263,40,"24625",10.049861,54.119087,"01057024",2013,0,11,0,0.0209125475285171
"01","Rendswühren",19.75,784,388,396,40,"24619",10.17974,54.074276,"01057068",2013,0,11,0,0.014030612244898
"01","Ruhwinkel",13.13,959,488,471,73,"24601",10.221823,54.094216,"01057069",2013,0,25,1,0.0260688216892596
"01","Schillsdorf",26.5,864,424,440,33,"24637",10.123873,54.116231,"01057071",2013,0,25,0,0.0289351851851852
"01","Stolpe",23.21,1255,614,641,54,"24601",10.222608,54.128911,"01057080",2013,0,31,0,0.0247011952191235
"01","Tasdorf",5.1,348,172,176,68,"24536",10.031296,54.095659,"01057083",2013,0,6,0,0.0172413793103448
"01","Wankendorf",13.34,2949,1435,1514,221,"24601",10.208038,54.112811,"01057085",2013,0,95,2,0.0322143099355714
"01","Altenholz",19.03,9928,4816,5112,522,"24161",10.120656,54.402998,"01058005",2013,0,192,19,0.0193392425463336
"01","Büdelsdorf, Stadt",6.48,9992,4799,5193,1542,"24782",9.677817,54.315687,"01058034",2013,0,303,24,0.030324259407526
"01","Eckernförde, Stadt",18.39,21792,10383,11409,1185,"24340",9.837037,54.472791,"01058043",2013,0,958,65,0.0439610866372981
"01","Kronshagen",5.35,11715,5529,6186,2190,"24119",10.076635,54.332199,"01058092",2013,0,248,34,0.0211694408877507
"01","Rendsburg, Stadt",23.73,27325,13294,14031,1151,"24768",9.663206,54.306495,"01058135",2013,0,1626,210,0.0595059469350412
"01","Wasbek",23.49,2210,1085,1125,94,"24647",9.895541,54.07142,"01058169",2013,0,46,2,0.020814479638009
"01","Achterwehr",15.65,965,490,475,62,"24239",9.96576,54.313379,"01058001",2013,0,15,0,0.0155440414507772
"01","Bredenbek",12.43,1447,704,743,116,"24796",9.871054,54.324946,"01058028",2013,0,20,0,0.0138217000691085
"01","Felde",13.87,2059,1030,1029,148,"24242",9.935309,54.3016,"01058050",2013,0,35,2,0.0169985429820301
"01","Krummwisch",13.91,687,360,327,49,"24796",9.897593,54.335159,"01058093",2013,0,15,0,0.0218340611353712
"01","Melsdorf",5.88,1688,846,842,287,"24109",10.029817,54.317289,"01058104",2013,0,22,0,0.0130331753554502
"01","Ottendorf",3.55,884,416,468,249,"24107",10.044532,54.340275,"01058126",2013,0,15,0,0.0169683257918552
"01","Quarnbek",16.18,1737,845,892,107,"24107",9.983912,54.330012,"01058130",2013,0,38,0,0.0218767990788716
"01","Westensee",36.91,1531,745,786,41,"24259",9.897116,54.274997,"01058171",2013,0,26,1,0.0169823644676682
"01","Dänischenhagen",15.71,3937,1957,1980,251,"24229",10.12891,54.425449,"01058037",2013,0,46,0,0.0116840233680467
"01","Noer",13.9,839,423,416,60,"24214",10.005399,54.461313,"01058116",2013,0,14,0,0.0166865315852205
"01","Schwedeneck",28.54,2815,1399,1416,99,"24229",10.069039,54.458476,"01058150",2013,0,56,3,0.0198934280639432
"01","Strande",13.73,1494,705,789,109,"24229",10.170979,54.440909,"01058157",2013,0,23,1,0.0153949129852744
"01","Felm",15.33,1158,569,589,76,"24244",10.061496,54.409603,"01058051",2013,0,22,1,0.0189982728842832
"01","Gettorf",9.35,7133,3498,3635,763,"24214",9.973683,54.407579,"01058058",2013,0,172,3,0.0241132763213234
"01","Lindau",25.18,1234,628,606,49,"24214",9.904583,54.385149,"01058096",2013,0,26,2,0.0210696920583468
"01","Neudorf-Bornstein",14.17,1060,519,541,75,"24214",9.934569,54.425599,"01058110",2013,0,17,0,0.0160377358490566
"01","Neuwittenbek",13.12,1192,594,598,91,"24214",10.028294,54.367896,"01058112",2013,0,10,0,0.00838926174496644
"01","Osdorf",19.88,2381,1179,1202,120,"24251",10.015654,54.427956,"01058121",2013,0,47,1,0.0197396052078958
"01","Schinkel",10.21,1009,509,500,99,"24214",9.954902,54.355838,"01058142",2013,0,14,0,0.0138751238850347
"01","Tüttendorf",17.74,1079,546,533,61,"24214",9.993457,54.392146,"01058165",2013,0,22,0,0.020389249304912
"01","Böhnhusen",5.29,319,158,161,60,"24220",10.068211,54.221123,"01058019",2013,0,8,0,0.0250783699059561
"01","Flintbek",17.57,7328,3559,3769,417,"24220",10.083774,54.253235,"01058053",2013,0,181,12,0.0246997816593886
"01","Schönhorst",3.55,315,157,158,89,"24220",10.104166,54.225471,"01058145",2013,0,8,1,0.0253968253968254
"01","Techelsdorf",4.35,156,84,72,36,"24220",10.047182,54.214207,"01058160",2013,0,5,0,0.032051282051282
"01","Alt Duvenstedt",20.42,1877,956,921,92,"24791",9.645213,54.359629,"01058003",2013,0,53,4,0.028236547682472
"01","Fockbek",26.65,6170,2940,3230,232,"24787",9.601368,54.304425,"01058054",2013,0,93,4,0.0150729335494327
"01","Nübbel",14.02,1546,796,750,110,"24809",9.621871,54.27262,"01058118",2013,0,23,0,0.0148771021992238
"01","Rickert",5.52,1073,520,553,194,"24782",9.669085,54.333615,"01058136",2013,0,14,0,0.0130475302889096
"01","Bargstall",4.62,133,67,66,29,"24806",9.46557,54.260474,"01058010",2013,0,2,0,0.0150375939849624
"01","Breiholz",18.49,1368,682,686,74,"24797",9.521979,54.206137,"01058029",2013,0,22,0,0.0160818713450292
"01","Christiansholm",8.42,229,119,110,27,"24799",9.405402,54.320498,"01058036",2013,0,10,0,0.0436681222707424
"01","Elsdorf-Westermühlen",27.48,1628,822,806,59,"24800",9.517318,54.260728,"01058047",2013,0,40,3,0.0245700245700246
"01","Friedrichsgraben",5.39,47,23,24,9,"24799",9.419087,54.272305,"01058055",2013,0,0,0,0
"01","Friedrichsholm",7.13,388,191,197,54,"24799",9.427267,54.303024,"01058056",2013,0,10,0,0.0257731958762887
"01","Hamdorf",30.59,1252,639,613,41,"24805",9.518657,54.225554,"01058070",2013,0,26,0,0.0207667731629393
"01","Hohn",31.94,2388,1201,1187,75,"24806",9.503416,54.298721,"01058078",2013,0,61,1,0.0255443886097152
"01","Königshügel",6.26,162,79,83,26,"24799",9.474274,54.33488,"01058089",2013,0,3,0,0.0185185185185185
"01","Lohe-Föhrden",16.03,484,262,222,30,"24806",9.522078,54.33615,"01058097",2013,0,8,0,0.0165289256198347
"01","Prinzenmoor",5.6,192,103,89,34,"24805",9.454146,54.217427,"01058129",2013,0,6,0,0.03125
"01","Sophienhamm",5.91,341,164,177,58,"24806",9.461024,54.270234,"01058154",2013,0,10,1,0.0293255131964809
"01","Brinjahe",4.66,123,65,58,26,"24816",9.632102,54.168528,"01058031",2013,0,4,0,0.032520325203252
"01","Embühren",7.45,229,102,127,31,"24819",9.591436,54.170602,"01058048",2013,0,6,0,0.0262008733624454
"01","Haale",13.03,525,276,249,40,"24819",9.548925,54.174256,"01058068",2013,0,9,0,0.0171428571428571
"01","Hamweddel",9.67,470,241,229,49,"24816",9.618873,54.190502,"01058071",2013,0,11,0,0.0234042553191489
"01","Hörsten",8.82,51,25,26,6,"24797",9.578792,54.22654,"01058075",2013,0,2,0,0.0392156862745098
"01","Jevenstedt",45.55,3247,1628,1619,71,"24808",9.668849,54.234604,"01058086",2013,0,86,3,0.0264859870649831
"01","Luhnstedt",15.34,395,191,204,26,"24816",9.698753,54.167176,"01058101",2013,0,15,0,0.0379746835443038
"01","Schülp b. Rendsburg",10.71,1129,552,577,105,"24813",9.629244,54.259318,"01058148",2013,0,14,0,0.012400354295837
"01","Stafstedt",11.83,341,168,173,29,"24816",9.66287,54.170705,"01058155",2013,0,10,0,0.0293255131964809
"01","Westerrönfeld",7.78,4957,2431,2526,637,"24784",9.646005,54.280365,"01058172",2013,0,125,5,0.0252168650393383
"01","Blumenthal",7.8,683,339,344,88,"24241",10.003257,54.226064,"01058018",2013,0,9,0,0.0131771595900439
"01","Mielkendorf",7.78,1361,669,692,175,"24247",10.040779,54.284565,"01058105",2013,0,28,1,0.020573108008817
"01","Molfsee",7.17,4808,2289,2519,671,"24113",10.064933,54.263397,"01058107",2013,0,74,3,0.0153910149750416
"01","Rodenbek",7.09,479,227,252,68,"24247",10.01972,54.276657,"01058138",2013,0,8,0,0.0167014613778706
"01","Rumohr",8.6,817,411,406,95,"24254",10.024676,54.255177,"01058139",2013,0,21,0,0.025703794369645
"01","Schierensee",9.18,385,192,193,42,"24241",9.983332,54.256838,"01058141",2013,0,6,0,0.0155844155844156
"01","Bargstedt",25.32,712,357,355,28,"24793",9.769024,54.162433,"01058011",2013,0,14,0,0.0196629213483146
"01","Bokel",15.27,643,327,316,42,"24802",9.794093,54.215588,"01058021",2013,0,19,1,0.0295489891135303
"01","Borgdorf-Seedorf",6.63,414,199,215,62,"24589",9.89036,54.175682,"01058023",2013,0,6,0,0.0144927536231884
"01","Brammer",13.66,389,194,195,28,"24793",9.765228,54.200192,"01058027",2013,0,10,1,0.025706940874036
"01","Dätgen",10.61,535,270,265,50,"24589",9.934284,54.181105,"01058038",2013,0,12,0,0.0224299065420561
"01","Eisendorf",5.49,294,149,145,54,"24589",9.869129,54.193403,"01058045",2013,0,9,0,0.0306122448979592
"01","Ellerdorf",10.2,493,258,235,48,"24589",9.838495,54.194754,"01058046",2013,0,11,2,0.0223123732251521
"01","Emkendorf",38.93,1385,713,672,36,"24802",9.853171,54.26233,"01058049",2013,0,30,1,0.0216606498194946
"01","Gnutz",22.93,1198,612,586,52,"24622",9.823515,54.13533,"01058059",2013,0,21,1,0.0175292153589316
"01","Groß Vollstedt",9.02,951,474,477,105,"24802",9.867712,54.234713,"01058065",2013,0,26,0,0.0273396424815983
"01","Krogaspe",11.82,425,224,201,36,"24644",9.929382,54.131573,"01058091",2013,0,13,1,0.0305882352941176
"01","Langwedel",24.22,1503,763,740,62,"24631",9.931599,54.211725,"01058094",2013,0,36,0,0.0239520958083832
"01","Nortorf, Stadt",12.77,6660,3238,3422,522,"24589",9.855952,54.16723,"01058117",2013,0,230,15,0.0345345345345345
"01","Oldenhütten",4.33,159,81,78,37,"24793",9.740452,54.158096,"01058120",2013,0,2,0,0.0125786163522013
"01","Schülp b. Nortorf",9.86,780,374,406,79,"24589",9.885618,54.163643,"01058147",2013,0,10,1,0.0128205128205128
"01","Timmaspe",15.36,1070,529,541,70,"24644",9.890944,54.140849,"01058163",2013,0,23,1,0.0214953271028037
"01","Warder",8.71,633,324,309,73,"24646",9.886711,54.213803,"01058168",2013,0,12,0,0.018957345971564
"01","Bovenau",26.2,1071,541,530,41,"24796",9.829983,54.330579,"01058026",2013,0,16,0,0.0149393090569561
"01","Haßmoor",10.28,261,129,132,25,"24790",9.820925,54.292253,"01058073",2013,0,3,0,0.0114942528735632
"01","Ostenfeld (Rendsburg)",7.27,543,274,269,75,"24790",9.785113,54.31452,"01058122",2013,0,12,2,0.0220994475138122
"01","Osterrönfeld",17.89,5096,2527,2569,285,"24783",9.696875,54.291916,"01058124",2013,0,100,4,0.0196232339089482
"01","Rade b. Rendsburg",6.52,207,103,104,32,"24790",9.745224,54.331428,"01058132",2013,0,7,0,0.0338164251207729
"01","Schacht-Audorf",6.52,4565,2226,2339,700,"24783",9.718033,54.313528,"01058140",2013,0,123,5,0.0269441401971522
"01","Schülldorf",12.99,706,358,348,54,"24790",9.729265,54.300344,"01058146",2013,0,14,0,0.0198300283286119
"01","Bissee",9.27,160,81,79,17,"24582",10.110473,54.190703,"01058016",2013,0,7,0,0.04375
"01","Bordesholm",10.16,7441,3627,3814,732,"24582",10.02605,54.175532,"01058022",2013,0,196,10,0.026340545625588
"01","Brügge",7.86,1016,526,490,129,"24582",10.071067,54.174356,"01058033",2013,0,17,1,0.0167322834645669
"01","Grevenkrug",4.16,219,115,104,53,"24241",10.01044,54.212982,"01058063",2013,0,6,0,0.0273972602739726
"01","Groß Buchwald",8.95,344,180,164,38,"24582",10.085963,54.162947,"01058064",2013,0,10,1,0.0290697674418605
"01","Hoffeld",6.62,152,72,80,23,"24582",9.98061,54.188849,"01058076",2013,0,3,0,0.0197368421052632
"01","Loop",8.34,178,87,91,21,"24644",9.949175,54.147998,"01058098",2013,0,6,1,0.0337078651685393
"01","Mühbrook",5.3,550,278,272,104,"24582",10.009403,54.157354,"01058108",2013,0,7,0,0.0127272727272727
"01","Negenharrie",12.43,340,170,170,27,"24625",10.075273,54.143594,"01058109",2013,0,6,0,0.0176470588235294
"01","Reesdorf",3.07,152,77,75,50,"24241",10.06034,54.190474,"01058133",2013,0,3,0,0.0197368421052632
"01","Schmalstede",4.81,272,141,131,57,"24241",10.030205,54.19323,"01058143",2013,0,5,0,0.0183823529411765
"01","Schönbek",6.11,192,94,98,31,"24582",9.975522,54.162731,"01058144",2013,0,3,0,0.015625
"01","Sören",6.51,187,87,100,29,"24241",9.998885,54.202744,"01058153",2013,0,3,0,0.0160427807486631
"01","Wattenbek",6.05,2962,1442,1520,490,"24582",10.05469,54.171228,"01058170",2013,0,60,2,0.0202565833896016
"01","Ascheffel",10.39,986,492,494,95,"24358",9.69823,54.430871,"01058008",2013,0,27,1,0.0273833671399594
"01","Borgstedt",9.15,1436,690,746,157,"24794",9.710012,54.33299,"01058024",2013,0,31,2,0.0215877437325905
"01","Brekendorf",20.47,993,516,477,49,"24811",9.630366,54.420681,"01058030",2013,0,31,1,0.0312185297079557
"01","Bünsdorf",13.24,608,313,295,46,"24794",9.74257,54.369536,"01058035",2013,0,16,0,0.0263157894736842
"01","Damendorf",7.48,431,214,217,58,"24361",9.735273,54.423533,"01058039",2013,0,13,0,0.0301624129930394
"01","Groß Wittensee",23.6,1157,585,572,49,"24361",9.769945,54.404606,"01058066",2013,0,27,1,0.0233362143474503
"01","Haby",5.79,522,265,257,90,"24361",9.822077,54.395389,"01058069",2013,0,12,0,0.0229885057471264
"01","Holtsee",21.71,1218,618,600,56,"24363",9.854754,54.39873,"01058080",2013,0,25,1,0.0205254515599343
"01","Holzbunge",5.19,326,154,172,63,"24361",9.705374,54.377747,"01058081",2013,0,7,0,0.0214723926380368
"01","Hütten",6.91,192,99,93,28,"24358",9.717519,54.437115,"01058083",2013,0,4,0,0.0208333333333333
"01","Klein Wittensee",4.3,204,96,108,47,"24361",9.73311,54.39039,"01058088",2013,0,3,0,0.0147058823529412
"01","Neu Duvenstedt",5.71,107,53,54,19,"24794",9.698384,54.355902,"01058111",2013,0,2,0,0.0186915887850467
"01","Osterby",9.84,945,461,484,96,"24367",9.753566,54.453494,"01058123",2013,0,20,0,0.0211640211640212
"01","Owschlag",39.32,3650,1804,1846,93,"24811",9.598839,54.391387,"01058127",2013,0,106,1,0.029041095890411
"01","Sehestedt",15.25,829,410,419,54,"24814",9.818375,54.366001,"01058152",2013,0,11,1,0.0132689987937274
"01","Ahlefeld-Bistensee",10.04,498,237,261,50,"24358",9.691856,54.403924,"01058175",2013,0,14,1,0.0281124497991968
"01","Altenhof",12.13,306,164,142,25,"24340",9.875234,54.434745,"01058004",2013,0,2,0,0.0065359477124183
"01","Barkelsby",17.87,1462,728,734,82,"24360",9.839569,54.501518,"01058012",2013,0,35,1,0.0239398084815321
"01","Brodersby",9.79,688,338,350,70,"24398",9.980119,54.634636,"01058032",2013,0,18,0,0.0261627906976744
"01","Damp",13.81,1399,668,731,101,"24351",9.983431,54.5783,"01058040",2013,0,37,2,0.0264474624731951
"01","Dörphof",15.02,690,352,338,46,"24398",9.971894,54.614129,"01058042",2013,0,23,1,0.0333333333333333
"01","Fleckeby",12.31,2102,994,1108,171,"24357",9.696064,54.482273,"01058052",2013,0,53,2,0.0252140818268316
"01","Gammelby",8.3,527,269,258,63,"24340",9.793238,54.500342,"01058057",2013,0,15,0,0.0284629981024668
"01","Güby",11.89,700,341,359,59,"24357",9.666683,54.485952,"01058067",2013,0,10,1,0.0142857142857143
"01","Holzdorf",17.35,847,439,408,49,"24364",9.896959,54.554372,"01058082",2013,0,24,0,0.0283353010625738
"01","Hummelfeld",7.98,282,133,149,35,"24357",9.718248,54.462168,"01058084",2013,0,9,0,0.0319148936170213
"01","Karby",2.09,589,286,303,282,"24398",9.975278,54.623146,"01058087",2013,0,21,0,0.0356536502546689
"01","Kosel",30,1397,678,719,47,"24354",9.754219,54.50537,"01058090",2013,0,47,3,0.0336435218324982
"01","Loose",13.11,761,381,380,58,"24366",9.889148,54.519595,"01058099",2013,0,19,1,0.0249671484888305
"01","Goosefeld",9.81,745,367,378,76,"24340",9.815036,54.429737,"01058102",2013,0,14,1,0.0187919463087248
"01","Rieseby",38.85,2656,1283,1373,68,"24354",9.812995,54.541709,"01058137",2013,0,96,1,0.036144578313253
"01","Thumby",27.39,470,242,228,17,"24351",9.910273,54.585574,"01058162",2013,0,13,0,0.0276595744680851
"01","Waabs",33.27,1403,676,727,42,"24369",9.983282,54.526748,"01058166",2013,0,39,0,0.0277975766215253
"01","Windeby",14.77,1063,525,538,72,"24340",9.796901,54.454793,"01058173",2013,0,28,0,0.026340545625588
"01","Winnemark",9.58,528,276,252,55,"24398",9.922134,54.615886,"01058174",2013,0,10,0,0.0189393939393939
"01","Arpsdorf",12.1,269,143,126,22,"24634",9.85904,54.038644,"01058007",2013,0,6,0,0.0223048327137546
"01","Aukrug",49.91,3754,1817,1937,75,"24613",9.792414,54.077067,"01058009",2013,0,99,3,0.0263718700053277
"01","Beldorf",11.96,270,134,136,23,"25557",9.352138,54.133279,"01058013",2013,0,5,0,0.0185185185185185
"01","Bendorf",20.47,449,216,233,22,"25557",9.382283,54.087214,"01058014",2013,0,14,2,0.0311804008908686
"01","Beringstedt",14.29,743,392,351,52,"25575",9.534981,54.110562,"01058015",2013,0,24,0,0.0323014804845222
"01","Bornholt",10.94,164,86,78,15,"25557",9.335478,54.101697,"01058025",2013,0,3,0,0.0182926829268293
"01","Ehndorf",14.68,651,336,315,44,"24647",9.893993,54.05327,"01058044",2013,0,16,2,0.0245775729646697
"01","Gokels",10.64,574,266,308,54,"25557",9.468744,54.112001,"01058061",2013,0,17,0,0.029616724738676
"01","Grauel",5.73,258,129,129,45,"24594",9.674147,54.070198,"01058062",2013,0,2,0,0.00775193798449612
"01","Hanerau-Hademarschen",14.63,2998,1468,1530,205,"25557",9.412577,54.127369,"01058072",2013,0,126,6,0.0420280186791194
"01","Heinkenborstel",7.55,137,68,69,18,"24594",9.75104,54.130804,"01058074",2013,0,3,0,0.0218978102189781
"01","Hohenwestedt",18.18,5102,2430,2672,281,"24594",9.651582,54.090894,"01058077",2013,0,158,8,0.030968247745982
"01","Jahrsdorf",8.77,245,122,123,28,"24594",9.631937,54.065682,"01058085",2013,0,3,0,0.0122448979591837
"01","Lütjenwestedt",22.32,555,277,278,25,"25585",9.490806,54.140616,"01058100",2013,0,19,0,0.0342342342342342
"01","Meezen",8.76,361,177,184,41,"24594",9.709777,54.05163,"01058103",2013,0,10,0,0.0277008310249307
"01","Mörel",8.69,246,136,110,28,"24594",9.728528,54.113809,"01058106",2013,0,5,1,0.0203252032520325
"01","Nienborstel",16.37,586,316,270,36,"24819",9.613481,54.136911,"01058113",2013,0,11,1,0.0187713310580205
"01","Nindorf",14.04,618,309,309,44,"24594",9.699683,54.131914,"01058115",2013,0,12,0,0.0194174757281553
"01","Oldenbüttel",7.97,272,143,129,34,"25557",9.452474,54.168952,"01058119",2013,0,10,0,0.0367647058823529
"01","Osterstedt",10.95,650,333,317,59,"25590",9.574606,54.111751,"01058125",2013,0,20,0,0.0307692307692308
"01","Padenstedt",14.6,1641,816,825,112,"24634",9.917284,54.048944,"01058128",2013,0,38,0,0.0231566118220597
"01","Rade b. Hohenwestedt",3.21,81,40,41,25,"24594",9.721127,54.101217,"01058131",2013,0,2,0,0.0246913580246914
"01","Remmels",9.49,425,217,208,45,"24594",9.652041,54.116584,"01058134",2013,0,8,0,0.0188235294117647
"01","Seefeld",6.77,351,169,182,52,"25557",9.492849,54.101581,"01058151",2013,0,19,0,0.0541310541310541
"01","Steenfeld",11.48,378,200,178,33,"25557",9.379822,54.142655,"01058156",2013,0,10,0,0.0264550264550265
"01","Tackesdorf",7.65,76,40,36,10,"25585",9.481918,54.175661,"01058158",2013,0,0,0,0
"01","Tappendorf",6.69,347,184,163,52,"24594",9.693517,54.104212,"01058159",2013,0,8,0,0.0230547550432277
"01","Thaden",11.98,259,134,125,22,"25557",9.422921,54.102552,"01058161",2013,0,8,0,0.0308880308880309
"01","Todenbüttel",11.78,1028,517,511,87,"24819",9.555715,54.129824,"01058164",2013,0,28,3,0.0272373540856031
"01","Wapelfeld",8.11,325,151,174,40,"24594",9.604521,54.082907,"01058167",2013,0,16,0,0.0492307692307692
"01","Kappeln, Stadt",43.32,8764,4189,4575,202,"24376",9.931158,54.659144,"01059045",2013,0,529,37,0.0603605659516203
"01","Schleswig, Stadt",24.3,23635,11350,12285,973,"24837",9.566657,54.514941,"01059075",2013,0,1766,152,0.0747196953670404
"01","Glücksburg (Ostsee), Stadt",39.7,5834,2745,3089,147,"24960",9.550997,54.836858,"01059113",2013,0,194,20,0.0332533424751457
"01","Harrislee",18.92,11040,5316,5724,584,"24955",9.382917,54.804282,"01059120",2013,0,506,72,0.0458333333333333
"01","Handewitt",77.72,10851,5389,5462,140,"24983",9.324674,54.763847,"01059183",2013,0,289,12,0.0266334900009216
"01","Eggebek",16.68,2268,1129,1139,136,"24852",9.371773,54.619649,"01059107",2013,0,102,3,0.044973544973545
"01","Janneby",14.49,407,198,209,28,"24992",9.300481,54.625601,"01059128",2013,0,16,0,0.0393120393120393
"01","Jerrishoe",16,957,470,487,60,"24963",9.371801,54.657215,"01059131",2013,0,34,0,0.0355276907001045
"01","Jörl",19.68,723,369,354,37,"24992",9.278088,54.61018,"01059132",2013,0,30,0,0.04149377593361
"01","Langstedt",13.17,1004,493,511,76,"24852",9.385428,54.616817,"01059138",2013,0,19,0,0.0189243027888446
"01","Sollerup",12.98,496,250,246,38,"24852",9.320146,54.572957,"01059162",2013,0,17,0,0.0342741935483871
"01","Süderhackstedt",10.15,331,183,148,33,"24852",9.289498,54.592318,"01059169",2013,0,7,0,0.0211480362537764
"01","Wanderup",28.64,2181,1086,1095,76,"24997",9.331464,54.68849,"01059174",2013,0,69,2,0.031636863823934
"01","Borgwedel",9.96,703,325,378,71,"24857",9.666805,54.500272,"01059012",2013,0,16,2,0.0227596017069701
"01","Busdorf",5.35,2046,997,1049,382,"24866",9.553156,54.493339,"01059018",2013,0,64,1,0.0312805474095797
"01","Dannewerk",16.65,1106,552,554,66,"24867",9.498016,54.479726,"01059019",2013,0,34,1,0.0307414104882459
"01","Fahrdorf",12,2510,1209,1301,209,"24857",9.599502,54.504972,"01059026",2013,0,44,1,0.0175298804780877
"01","Geltorf",8.08,357,177,180,44,"24884",9.612632,54.463184,"01059032",2013,0,9,0,0.0252100840336134
"01","Jagel",11.89,975,497,478,82,"24878",9.537499,54.457148,"01059043",2013,0,34,0,0.0348717948717949
"01","Lottorf",5.78,227,104,123,39,"24878",9.57292,54.45024,"01059056",2013,0,8,0,0.0352422907488987
"01","Selk",10.07,868,431,437,86,"24884",9.583539,54.468864,"01059078",2013,0,20,0,0.0230414746543779
"01","Tastrup",4.16,417,195,222,100,"24943",9.477121,54.765066,"01059101",2013,0,7,0,0.0167865707434053
"01","Ausacker",9.13,542,271,271,59,"24975",9.574898,54.7375,"01059103",2013,0,10,0,0.018450184501845
"01","Großsolt",25.07,1777,872,905,71,"24991",9.513444,54.699352,"01059116",2013,0,47,0,0.0264490714687676
"01","Hürup",16.2,1217,604,613,75,"24975",9.529426,54.748128,"01059126",2013,0,19,0,0.0156121610517666
"01","Husby",19.31,2333,1159,1174,121,"24975",9.577321,54.765196,"01059127",2013,0,60,3,0.0257179597085298
"01","Maasbüll",7.71,698,359,339,91,"24975",9.522839,54.778197,"01059141",2013,0,15,0,0.0214899713467049
"01","Freienwill",15.3,1567,770,797,102,"24991",9.492436,54.728589,"01059182",2013,0,35,3,0.0223356732610083
"01","Arnis, Stadt",0.45,283,151,132,629,"24399",9.930841,54.631005,"01059002",2013,0,8,0,0.0282685512367491
"01","Grödersby",6.64,215,97,118,32,"24376",9.91842,54.637617,"01059034",2013,0,6,0,0.027906976744186
"01","Oersberg",7.09,302,156,146,43,"24407",9.843457,54.674356,"01059067",2013,0,12,0,0.0397350993377483
"01","Rabenkirchen-Faulück",14.21,630,328,302,44,"24407",9.862726,54.645176,"01059068",2013,0,34,1,0.053968253968254
"01","Dollerup",13.08,994,500,494,76,"24989",9.680759,54.776063,"01059106",2013,0,32,1,0.0321931589537223
"01","Grundhof",11.57,843,430,413,73,"24977",9.654546,54.773325,"01059118",2013,0,19,0,0.0225385527876631
"01","Langballig",15.42,1547,757,790,100,"24977",9.637034,54.799394,"01059137",2013,0,50,2,0.0323206205559147
"01","Munkbrarup",13.27,1118,554,564,84,"24960",9.561132,54.8032,"01059145",2013,0,21,0,0.018783542039356
"01","Ringsberg",5.25,554,280,274,106,"24977",9.598332,54.807139,"01059157",2013,0,18,0,0.0324909747292419
"01","Wees",12.74,2210,1088,1122,173,"24999",9.52256,54.807217,"01059176",2013,0,48,4,0.0217194570135747
"01","Westerholz",14.74,731,342,389,50,"24977",9.668774,54.817328,"01059178",2013,0,17,0,0.0232558139534884
"01","Sieverstedt",31.01,1623,829,794,52,"24885",9.475636,54.643106,"01059159",2013,0,50,0,0.0308071472581639
"01","Tarp",16.36,5181,2499,2682,317,"24963",9.402835,54.664094,"01059171",2013,0,271,14,0.0523065045358039
"01","Oeversee",36.26,3362,1695,1667,93,"24988",9.433082,54.702848,"01059184",2013,0,109,7,0.0324211778703153
"01","Schnarup-Thumby",10.72,568,293,275,53,"24891",9.6497,54.648513,"01059076",2013,0,14,0,0.0246478873239437
"01","Sörup",44.32,4289,2147,2142,97,"24966",9.668561,54.717901,"01059161",2013,0,183,3,0.0426672884122173
"01","Mittelangeln",44.96,5036,2492,2544,112,"24986",9.593828,54.683238,"01059185",2013,0,163,3,0.0323669579030977
"01","Böxlund",4.4,106,62,44,24,"24994",9.179768,54.839788,"01059105",2013,0,3,0,0.0283018867924528
"01","Großenwiehe",30.2,2910,1483,1427,96,"24969",9.252522,54.71288,"01059115",2013,0,84,6,0.0288659793814433
"01","Hörup",18.15,614,317,297,34,"24980",9.103759,54.740637,"01059123",2013,0,9,0,0.0146579804560261
"01","Holt",13.42,198,104,94,15,"24994",9.147231,54.810764,"01059124",2013,0,5,0,0.0252525252525253
"01","Jardelund",16.63,328,172,156,20,"24994",9.201126,54.82529,"01059129",2013,0,14,0,0.0426829268292683
"01","Medelby",9.75,921,461,460,94,"24994",9.172824,54.812747,"01059143",2013,0,33,1,0.0358306188925081
"01","Meyn",12.4,721,376,345,58,"24980",9.223618,54.757551,"01059144",2013,0,20,0,0.0277392510402219
"01","Nordhackstedt",12.47,456,237,219,37,"24980",9.167001,54.7334,"01059149",2013,0,14,0,0.0307017543859649
"01","Osterby",12.35,308,151,157,25,"24994",9.21072,54.797445,"01059151",2013,0,9,0,0.0292207792207792
"01","Schafflund",19.09,2446,1215,1231,128,"24980",9.184281,54.759438,"01059158",2013,0,64,1,0.0261651676206051
"01","Wallsbüll",13.23,883,433,450,67,"24980",9.23803,54.774478,"01059173",2013,0,33,0,0.0373725934314836
"01","Weesby",21.44,444,224,220,21,"24994",9.152975,54.829731,"01059177",2013,0,8,0,0.018018018018018
"01","Lindewitt",53.27,1985,1015,970,37,"24969",9.196859,54.697924,"01059179",2013,0,72,1,0.036272040302267
"01","Böel",13.67,747,382,365,55,"24401",9.721898,54.648025,"01059006",2013,0,31,0,0.0414993306559572
"01","Brebel",6.96,387,203,184,56,"24392",9.736844,54.634527,"01059014",2013,0,20,0,0.0516795865633075
"01","Dollrottfeld",4.99,258,142,116,52,"24392",9.808815,54.642686,"01059021",2013,0,12,0,0.0465116279069767
"01","Loit",6.69,246,125,121,37,"24888",9.701057,54.6121,"01059055",2013,0,8,1,0.032520325203252
"01","Mohrkirch",14.42,1000,506,494,69,"24405",9.706676,54.67755,"01059060",2013,0,37,0,0.037
"01","Norderbrarup",3.98,660,322,338,166,"24392",9.768608,54.655394,"01059063",2013,0,29,1,0.0439393939393939
"01","Nottfeld",3.18,140,76,64,44,"24392",9.768634,54.618666,"01059065",2013,0,4,0,0.0285714285714286
"01","Rügge",6.01,244,116,128,41,"24405",9.76189,54.689354,"01059070",2013,0,5,0,0.0204918032786885
"01","Saustrup",8.14,209,107,102,26,"24392",9.772102,54.671983,"01059072",2013,0,3,0,0.0143540669856459
"01","Scheggerott",6.32,358,184,174,57,"24392",9.821294,54.667579,"01059074",2013,0,14,0,0.0391061452513966
"01","Steinfeld",8.73,754,361,393,86,"24888",9.739705,54.599879,"01059080",2013,0,22,1,0.0291777188328912
"01","Süderbrarup",8.1,4112,1967,2145,508,"24392",9.77543,54.635615,"01059083",2013,0,255,12,0.0620136186770428
"01","Ulsnis",19.81,671,343,328,34,"24897",9.745339,54.568047,"01059094",2013,0,15,0,0.022354694485842
"01","Wagersrott",5.64,240,130,110,43,"24392",9.79451,54.665441,"01059095",2013,0,8,0,0.0333333333333333
"01","Boren",30.15,1163,605,558,39,"24392",9.819203,54.614325,"01059187",2013,0,29,2,0.0249355116079106
"01","Böklund",7.88,1471,723,748,187,"24860",9.583662,54.603487,"01059008",2013,0,68,4,0.0462270564242012
"01","Brodersby",10.36,520,264,256,50,"24864",9.714558,54.538183,"01059016",2013,0,18,0,0.0346153846153846
"01","Goltoft",3.09,217,109,108,70,"24864",9.72206,54.54752,"01059033",2013,0,3,0,0.0138248847926267
"01","Havetoft",14.53,902,422,480,62,"24873",9.516693,54.649266,"01059037",2013,0,37,0,0.041019955654102
"01","Idstedt",13.35,848,416,432,64,"24879",9.511808,54.582202,"01059042",2013,0,23,0,0.027122641509434
"01","Klappholz",8.22,500,240,260,61,"24860",9.541113,54.619213,"01059049",2013,0,20,1,0.04
"01","Neuberend",4.42,1083,530,553,245,"24879",9.525188,54.555268,"01059062",2013,0,28,0,0.025854108956602
"01","Schaalby",25,1602,798,804,64,"24882",9.63988,54.549079,"01059073",2013,0,46,1,0.0287141073657928
"01","Stolk",14.54,781,400,381,54,"24890",9.541623,54.598571,"01059081",2013,0,25,0,0.0320102432778489
"01","Struxdorf",13.4,643,347,296,48,"24891",9.63854,54.632416,"01059082",2013,0,23,0,0.0357698289269051
"01","Süderfahrenstedt",9.15,486,239,247,53,"24890",9.584252,54.585386,"01059084",2013,0,17,1,0.0349794238683128
"01","Taarstedt",13.69,890,446,444,65,"24893",9.688715,54.567368,"01059086",2013,0,33,1,0.0370786516853933
"01","Tolk",10.44,1041,525,516,100,"24894",9.639282,54.578788,"01059090",2013,0,47,1,0.0451488952929875
"01","Uelsby",10.59,434,210,224,41,"24860",9.597065,54.631409,"01059093",2013,0,12,1,0.0276497695852535
"01","Twedt",12.52,505,250,255,40,"24894",9.676062,54.597883,"01059097",2013,0,18,0,0.0356435643564356
"01","Nübel",18.32,1357,711,646,74,"24881",9.583971,54.563867,"01059098",2013,0,40,0,0.0294767870302137
"01","Ahneby",3.8,214,103,111,56,"24996",9.730965,54.701421,"01059102",2013,0,6,0,0.0280373831775701
"01","Esgrus",18.05,765,372,393,42,"24402",9.782169,54.723422,"01059109",2013,0,30,0,0.0392156862745098
"01","Gelting",20.02,1970,950,1020,98,"24395",9.89717,54.746312,"01059112",2013,0,104,4,0.0527918781725888
"01","Hasselberg",11.3,841,445,396,74,"24376",9.977353,54.715122,"01059121",2013,0,32,0,0.0380499405469679
"01","Kronsgaard",5.92,237,111,126,40,"24395",9.965003,54.732024,"01059136",2013,0,3,0,0.0126582278481013
"01","Maasholm",8.4,617,307,310,73,"24404",9.990992,54.684233,"01059142",2013,0,20,0,0.0324149108589951
"01","Nieby",8.07,139,66,73,17,"24395",9.936705,54.771513,"01059147",2013,0,2,0,0.0143884892086331
"01","Niesgrau",9.89,579,296,283,59,"24395",9.81269,54.744062,"01059148",2013,0,18,1,0.0310880829015544
"01","Pommerby",5.55,155,77,78,28,"24395",9.937539,54.756629,"01059152",2013,0,2,0,0.0129032258064516
"01","Rabel",8.84,656,336,320,74,"24376",9.949198,54.690305,"01059154",2013,0,20,1,0.0304878048780488
"01","Rabenholz",5.8,269,127,142,46,"24395",9.902241,54.722168,"01059155",2013,0,8,0,0.0297397769516729
"01","Stangheck",10,236,117,119,24,"24395",9.860273,54.712702,"01059163",2013,0,5,0,0.0211864406779661
"01","Steinberg",16.24,853,418,435,53,"24972",9.782279,54.755994,"01059164",2013,0,30,0,0.0351699882766706
"01","Sterup",17.14,1381,680,701,81,"24996",9.738908,54.727837,"01059167",2013,0,54,0,0.0391020999275887
"01","Stoltebüll",16.4,741,368,373,45,"24409",9.878988,54.700688,"01059168",2013,0,17,0,0.0229419703103914
"01","Steinbergkirche",35.75,2785,1380,1405,78,"24972",9.759969,54.7544,"01059186",2013,0,110,3,0.0394973070017953
"01","Bollingstedt",27.05,1468,740,728,54,"24855",9.412302,54.592885,"01059010",2013,0,50,1,0.0340599455040872
"01","Ellingstedt",21.49,791,392,399,37,"24870",9.409767,54.477836,"01059023",2013,0,23,0,0.0290771175726928
"01","Hollingstedt",17.51,993,500,493,57,"24876",9.336606,54.455932,"01059039",2013,0,28,1,0.0281973816717019
"01","Hüsby",9.68,781,381,400,81,"24850",9.484548,54.496335,"01059041",2013,0,18,1,0.0230473751600512
"01","Jübek",15.58,2639,1320,1319,169,"24855",9.395088,54.556757,"01059044",2013,0,111,1,0.0420613868889731
"01","Lürschau",16.51,1092,564,528,66,"24850",9.49638,54.539647,"01059057",2013,0,27,0,0.0247252747252747
"01","Schuby",23.94,2531,1252,1279,106,"24850",9.480304,54.515216,"01059077",2013,0,83,2,0.0327933623073884
"01","Silberstedt",37.91,2178,1135,1043,57,"24887",9.370766,54.518594,"01059079",2013,0,94,7,0.0431588613406795
"01","Treia",21.72,1519,755,764,70,"24896",9.316618,54.518494,"01059092",2013,0,50,0,0.032916392363397
"01","Alt Bennebek",14.09,337,181,156,24,"24848",9.431246,54.377641,"01059001",2013,0,14,0,0.0415430267062315
"01","Bergenhusen",18.22,714,371,343,39,"24861",9.316107,54.376351,"01059005",2013,0,32,1,0.0448179271708683
"01","Börm",18.71,752,392,360,40,"24863",9.378249,54.4033,"01059009",2013,0,30,2,0.0398936170212766
"01","Dörpstedt",16.61,559,293,266,34,"24869",9.362474,54.434054,"01059020",2013,0,25,0,0.0447227191413238
"01","Erfde",33.95,1887,945,942,56,"24803",9.317127,54.308546,"01059024",2013,0,67,1,0.0355060943296237
"01","Groß Rheide",15.37,879,448,431,57,"24848",9.441852,54.441577,"01059035",2013,0,32,0,0.0364050056882821
"01","Klein Bennebek",25.63,532,277,255,21,"24848",9.456571,54.401997,"01059050",2013,0,14,0,0.0263157894736842
"01","Klein Rheide",12.82,314,172,142,24,"24848",9.476383,54.449512,"01059051",2013,0,5,0,0.0159235668789809
"01","Kropp",31.94,6382,3090,3292,200,"24848",9.508668,54.411199,"01059053",2013,0,188,11,0.0294578502036979
"01","Meggerdorf",24.11,685,344,341,28,"24799",9.39829,54.347483,"01059058",2013,0,20,0,0.0291970802919708
"01","Norderstapel",15.91,800,423,377,50,"25868",9.244945,54.360881,"01059064",2013,0,32,1,0.04
"01","Süderstapel",16.95,1003,477,526,59,"25879",9.218997,54.349368,"01059085",2013,0,43,1,0.0428713858424726
"01","Tetenhusen",23.13,954,477,477,41,"24817",9.494238,54.349121,"01059087",2013,0,18,0,0.0188679245283019
"01","Tielen",13.33,294,148,146,22,"24803",9.334919,54.285643,"01059088",2013,0,4,0,0.0136054421768707
"01","Wohlde",14.43,504,260,244,35,"24899",9.294745,54.404782,"01059096",2013,0,29,2,0.0575396825396825
"01","Bad Bramstedt, Stadt",24.14,13576,6638,6938,562,"24576",9.882115,53.918792,"01060004",2013,0,461,65,0.0339569829110194
"01","Bad Segeberg, Stadt",18.87,16732,7925,8807,887,"23795",10.304193,53.937059,"01060005",2013,0,683,66,0.0408199856562276
"01","Ellerau",7.09,5911,2895,3016,834,"25479",9.917437,53.753052,"01060019",2013,0,108,9,0.0182710201319574
"01","Henstedt-Ulzburg",39.47,27269,13589,13680,691,"24558",9.991924,53.783923,"01060039",2013,0,591,51,0.0216729619714694
"01","Kaltenkirchen, Stadt",23.1,20080,9800,10280,869,"24568",9.959311,53.838257,"01060044",2013,0,743,119,0.0370019920318725
"01","Norderstedt, Stadt",58.1,75394,36223,39171,1298,"22846",9.983634,53.695736,"01060063",2013,0,1959,333,0.0259835000132637
"01","Wahlstedt, Stadt",15.75,9236,4512,4724,586,"23812",10.214464,53.952343,"01060092",2013,0,386,23,0.0417929839757471
"01","Armstedt",8.92,407,206,201,46,"24616",9.847056,53.971225,"01060003",2013,0,9,0,0.0221130221130221
"01","Bimöhlen",17.23,955,521,434,55,"24576",9.953588,53.935914,"01060009",2013,0,17,1,0.0178010471204188
"01","Borstel",5.12,120,60,60,23,"24616",9.79743,53.969545,"01060013",2013,0,0,0,0
"01","Föhrden-Barl",9.23,295,155,140,32,"25563",9.787122,53.927492,"01060021",2013,0,3,0,0.0101694915254237
"01","Fuhlendorf",6.49,429,212,217,66,"24649",9.885482,53.943215,"01060023",2013,0,11,0,0.0256410256410256
"01","Großenaspe",45.62,2820,1381,1439,62,"24623",9.966826,53.976025,"01060027",2013,0,90,5,0.0319148936170213
"01","Hagen",8.2,446,230,216,54,"24576",9.826977,53.946622,"01060031",2013,0,8,0,0.0179372197309417
"01","Hardebek",10.01,470,241,229,47,"24616",9.868731,53.988376,"01060033",2013,0,10,0,0.0212765957446809
"01","Hasenkrug",5.2,337,171,166,65,"24616",9.849789,53.985063,"01060035",2013,0,4,0,0.0118694362017804
"01","Heidmoor",18.25,325,161,164,18,"24632",9.819023,53.864464,"01060037",2013,0,5,0,0.0153846153846154
"01","Hitzhusen",7.93,1258,628,630,159,"24576",9.85186,53.923022,"01060040",2013,0,20,2,0.0158982511923688
"01","Mönkloh",12.52,253,136,117,20,"24576",9.787844,53.888087,"01060056",2013,0,3,0,0.0118577075098814
"01","Weddelbrook",14.05,1005,503,502,72,"24576",9.830237,53.904106,"01060095",2013,0,14,0,0.0139303482587065
"01","Wiemersdorf",17.55,1576,788,788,90,"24649",9.90454,53.95794,"01060099",2013,0,26,1,0.016497461928934
"01","Bornhöved",14.12,3329,1659,1670,236,"24619",10.225454,54.068565,"01060012",2013,0,116,5,0.0348452988885551
"01","Damsdorf",7.75,229,112,117,30,"23824",10.314111,54.064498,"01060017",2013,0,7,0,0.0305676855895196
"01","Gönnebek",14.87,473,251,222,32,"24610",10.177561,54.049038,"01060026",2013,0,12,0,0.025369978858351
"01","Schmalensee",8.68,448,223,225,52,"24638",10.270438,54.082882,"01060072",2013,0,11,1,0.0245535714285714
"01","Stocksee",11.38,393,202,191,35,"24326",10.343274,54.089631,"01060080",2013,0,15,0,0.0381679389312977
"01","Tarbek",10.02,160,84,76,16,"24619",10.269726,54.055964,"01060086",2013,0,3,0,0.01875
"01","Tensfeld",7.65,696,329,367,91,"23824",10.320723,54.042171,"01060087",2013,0,15,0,0.021551724137931
"01","Trappenkamp",3.45,5041,2504,2537,1461,"24610",10.22097,54.041764,"01060089",2013,0,249,17,0.049394961317199
"01","Itzstedt",7.13,2364,1197,1167,332,"23845",10.156532,53.806384,"01060043",2013,0,42,1,0.0177664974619289
"01","Kayhude",5.25,1196,586,610,228,"23863",10.134312,53.757591,"01060046",2013,0,15,2,0.0125418060200669
"01","Nahe",10.37,2358,1186,1172,227,"23866",10.134814,53.795442,"01060058",2013,0,43,3,0.0182357930449534
"01","Oering",9.09,1296,667,629,143,"23845",10.14788,53.825234,"01060065",2013,0,31,0,0.0239197530864198
"01","Seth",10.55,1951,1003,948,185,"23845",10.175024,53.85039,"01060076",2013,0,33,1,0.0169144028703229
"01","Sülfeld",26.05,3148,1529,1619,121,"23867",10.231158,53.799372,"01060085",2013,0,70,2,0.0222363405336722
"01","Alveslohe",21.56,2626,1322,1304,122,"25486",9.913813,53.786906,"01060002",2013,0,59,6,0.0224676313785225
"01","Hartenholm",15.37,1755,875,880,114,"24628",10.06027,53.899992,"01060034",2013,0,40,1,0.0227920227920228
"01","Hasenmoor",17.77,724,377,347,41,"24640",9.981344,53.899913,"01060036",2013,0,13,0,0.0179558011049724
"01","Lentföhrden",20.07,2454,1263,1191,122,"24632",9.888251,53.873197,"01060054",2013,0,69,4,0.0281173594132029
"01","Nützen",21.62,1158,604,554,54,"24568",9.919785,53.864688,"01060064",2013,0,32,1,0.0276338514680484
"01","Schmalfeld",19.33,1913,980,933,99,"24640",9.983686,53.876899,"01060073",2013,0,38,2,0.0198640878201777
"01","Hüttblek",2.75,366,183,183,133,"24641",10.071819,53.83945,"01060042",2013,0,5,0,0.0136612021857923
"01","Kattendorf",9.84,843,421,422,86,"24568",10.023721,53.843003,"01060045",2013,0,14,1,0.0166073546856465
"01","Kisdorf",24.52,3796,1881,1915,155,"24629",10.007001,53.807677,"01060047",2013,0,76,3,0.0200210748155954
"01","Oersdorf",6.65,866,446,420,130,"24568",9.99486,53.840293,"01060066",2013,0,14,1,0.0161662817551963
"01","Sievershütten",7.08,1163,569,594,164,"24641",10.106221,53.841324,"01060077",2013,0,32,0,0.0275150472914875
"01","Struvenhütten",12.87,1012,514,498,79,"24643",10.055588,53.865597,"01060082",2013,0,22,0,0.0217391304347826
"01","Stuvenborn",7.98,885,459,426,111,"24641",10.124938,53.851444,"01060084",2013,0,19,0,0.0214689265536723
"01","Wakendorf II",12.8,1360,646,714,106,"24558",10.079879,53.780212,"01060094",2013,0,27,1,0.0198529411764706
"01","Winsen",4.08,406,212,194,100,"24568",10.015364,53.830924,"01060100",2013,0,10,1,0.0246305418719212
"01","Bark",20.44,1014,538,476,50,"23826",10.18504,53.910575,"01060007",2013,0,28,0,0.0276134122287968
"01","Bebensee",6.68,641,299,342,96,"23816",10.29855,53.875085,"01060008",2013,0,12,0,0.0187207488299532
"01","Fredesdorf",5.9,368,192,176,62,"23826",10.203463,53.875228,"01060022",2013,0,7,0,0.0190217391304348
"01","Groß Niendorf",10.68,643,328,315,60,"23816",10.245303,53.845757,"01060029",2013,0,15,0,0.0233281493001555
"01","Högersdorf",4.94,415,212,203,84,"23795",10.284353,53.920748,"01060041",2013,0,8,0,0.0192771084337349
"01","Kükels",8.45,440,220,220,52,"23829",10.238537,53.89479,"01060051",2013,0,8,0,0.0181818181818182
"01","Leezen",14.98,1723,868,855,115,"23816",10.251739,53.865227,"01060053",2013,0,39,3,0.0226349390597795
"01","Mözen",7.72,438,222,216,57,"23795",10.258095,53.91108,"01060057",2013,0,6,0,0.0136986301369863
"01","Neversdorf",7.22,702,355,347,97,"23816",10.285862,53.86477,"01060062",2013,0,13,0,0.0185185185185185
"01","Schwissel",4.44,258,129,129,58,"23795",10.293634,53.895424,"01060074",2013,0,4,0,0.0155038759689922
"01","Todesfelde",17.24,1039,520,519,60,"23826",10.176082,53.891939,"01060088",2013,0,26,0,0.0250240615976901
"01","Wittenborn",6.19,864,445,419,140,"23829",10.223554,53.926269,"01060101",2013,0,27,1,0.03125
"01","Boostedt",27.11,4588,2243,2345,169,"24598",10.025785,54.010323,"01060011",2013,0,112,3,0.024411508282476
"01","Daldorf",15.16,663,328,335,44,"24635",10.248643,54.017015,"01060016",2013,0,14,0,0.0211161387631976
"01","Groß Kummerfeld",30.18,1920,962,958,64,"24626",10.073673,54.051542,"01060028",2013,0,31,1,0.0161458333333333
"01","Heidmühlen",17.83,695,328,367,39,"24598",10.083729,53.972482,"01060038",2013,0,16,0,0.023021582733813
"01","Latendorf",17.94,589,302,287,33,"24598",10.063741,53.995075,"01060052",2013,0,10,0,0.0169779286926995
"01","Rickling",38.94,3158,1661,1497,81,"24635",10.16486,54.006058,"01060068",2013,0,62,1,0.019632678910703
"01","Bahrenhof",5.71,216,104,112,38,"23845",10.379473,53.878559,"01060006",2013,0,3,0,0.0138888888888889
"01","Blunk",10.69,590,311,279,55,"23813",10.315789,54.007567,"01060010",2013,0,22,0,0.0372881355932203
"01","Bühnsdorf",4.15,342,176,166,82,"23845",10.374463,53.886944,"01060015",2013,0,8,0,0.0233918128654971
"01","Dreggers",2.79,59,32,27,21,"23845",10.345729,53.885277,"01060018",2013,0,2,0,0.0338983050847458
"01","Fahrenkrug",6.21,1537,777,760,248,"23795",10.257059,53.941286,"01060020",2013,0,35,0,0.0227716330513988
"01","Geschendorf",5.7,529,265,264,93,"23815",10.441563,53.921999,"01060024",2013,0,12,0,0.0226843100189036
"01","Glasau",18.82,915,469,446,49,"23719",10.516777,54.056669,"01060025",2013,0,26,1,0.0284153005464481
"01","Groß Rönnau",6.38,573,287,286,90,"23795",10.31242,53.972038,"01060030",2013,0,9,0,0.0157068062827225
"01","Klein Gladebrügge",4.67,576,285,291,123,"23795",10.317432,53.914441,"01060048",2013,0,19,0,0.0329861111111111
"01","Klein Rönnau",4.53,1518,740,778,335,"23795",10.320689,53.961927,"01060049",2013,0,31,1,0.0204216073781291
"01","Krems II",11.23,417,215,202,37,"23827",10.355628,53.986501,"01060050",2013,0,7,0,0.0167865707434053
"01","Negernbötel",16.97,1014,501,513,60,"23795",10.248764,53.982902,"01060059",2013,0,25,0,0.02465483234714
