"land","name","area_km2","pop_tot","pop_male","pop_female","pop_density_km2","zip","lon","lat","ags","year","east","unem_tot","unem_foreigner","unem_capita"
"01","Flensburg, Stadt",56.74,89357,44028,45329,1575,"24937",9.437509,54.78252,"01001000",2011,0,5151,523,0.0576451760914086
"01","Kiel, Landeshauptstadt",118.65,242041,118724,123317,2040,"24103",10.13727,54.321775,"01002000",2011,0,13694,2202,0.0565771914675613
"01","Lübeck, Hansestadt",214.21,210577,100356,110221,983,"23539",10.683931,53.866269,"01003000",2011,0,11548,1652,0.0548397973187955
"01","Neumünster, Stadt",71.63,76939,37953,38986,1074,"24534",9.984968,54.073921,"01004000",2011,0,4454,607,0.0578900167665293
"01","Brunsbüttel, Stadt",65.24,12989,6467,6522,199,"25541",9.126938,53.896664,"01051011",2011,0,570,33,0.0438832858572638
"01","Heide, Stadt",31.97,20814,9963,10851,651,"25746",9.0954,54.195833,"01051044",2011,0,1271,120,0.0610646680119151
"01","Averlak",9.07,594,298,296,65,"25715",9.182663,53.941153,"01051003",2011,0,14,0,0.0235690235690236
"01","Brickeln",6.07,217,110,107,36,"25712",9.221166,54.00849,"01051010",2011,0,3,0,0.0138248847926267
"01","Buchholz",14.55,1086,560,526,75,"25712",9.223593,53.987198,"01051012",2011,0,27,0,0.0248618784530387
"01","Burg (Dithmarschen)",11.23,4173,2026,2147,372,"25712",9.258097,53.995936,"01051016",2011,0,188,8,0.0450515216870357
"01","Dingen",7.02,662,329,333,94,"25715",9.125803,53.960888,"01051022",2011,0,17,0,0.0256797583081571
"01","Eddelak",9.21,1353,666,687,147,"25715",9.137788,53.945504,"01051024",2011,0,54,2,0.0399113082039911
"01","Eggstedt",12.79,772,385,387,60,"25721",9.259269,54.054534,"01051026",2011,0,24,0,0.0310880829015544
"01","Frestedt",10.32,381,194,187,37,"25727",9.175759,54.023638,"01051032",2011,0,9,0,0.0236220472440945
"01","Großenrade",10.4,505,254,251,49,"25712",9.223435,54.022051,"01051037",2011,0,13,0,0.0257425742574257
"01","Hochdonn",5.46,1209,599,610,221,"25712",9.29316,54.019564,"01051051",2011,0,28,1,0.0231596360628619
"01","Kuden",11.36,658,342,316,58,"25712",9.192821,53.967852,"01051064",2011,0,12,0,0.0182370820668693
"01","Quickborn",6.95,201,92,109,29,"25712",9.206618,54.009975,"01051089",2011,0,4,0,0.0199004975124378
"01","Sankt Michaelisdonn",23.05,3598,1790,1808,156,"25693",9.122147,53.994437,"01051097",2011,0,123,6,0.0341856586992774
"01","Süderhastedt",15.74,860,421,439,55,"25727",9.208859,54.049909,"01051110",2011,0,20,0,0.0232558139534884
"01","Diekhusen-Fahrstedt",7.46,752,397,355,101,"25709",9.028338,53.942364,"01051021",2011,0,20,1,0.0265957446808511
"01","Friedrichskoog",53.35,2448,1222,1226,46,"25718",8.897409,54.013925,"01051034",2011,0,86,2,0.0351307189542484
"01","Helse",11.44,974,485,489,85,"25709",9.010226,53.977555,"01051046",2011,0,17,1,0.0174537987679671
"01","Kaiser-Wilhelm-Koog",13.06,389,199,190,30,"25709",8.926363,53.942933,"01051057",2011,0,9,0,0.0231362467866324
"01","Kronprinzenkoog",28.85,864,436,428,30,"25709",8.964497,53.971709,"01051062",2011,0,22,1,0.025462962962963
"01","Marne, Stadt",4.83,5699,2664,3035,1180,"25709",9.008761,53.953694,"01051072",2011,0,270,10,0.0473767327601334
"01","Marnerdeich",1.31,338,187,151,258,"25709",8.983063,53.948488,"01051073",2011,0,17,0,0.0502958579881657
"01","Neufeld",10.41,623,332,291,60,"25724",9.019045,53.907224,"01051076",2011,0,19,0,0.0304975922953451
"01","Neufelderkoog",9.76,138,65,73,14,"25724",8.96889,53.906887,"01051077",2011,0,3,0,0.0217391304347826
"01","Ramhusen",4.8,165,87,78,34,"25715",9.090658,53.941207,"01051090",2011,0,4,0,0.0242424242424242
"01","Schmedeswurth",5.91,193,102,91,33,"25724",9.041004,53.926611,"01051103",2011,0,9,0,0.0466321243523316
"01","Trennewurth",7.79,260,136,124,33,"25693",9.02715,54.000215,"01051118",2011,0,10,0,0.0384615384615385
"01","Volsemenhusen",16.78,348,179,169,21,"25693",9.065624,53.9679,"01051119",2011,0,7,0,0.0201149425287356
"01","Barkenholm",5.11,176,92,84,34,"25791",9.174339,54.237387,"01051005",2011,0,4,0,0.0227272727272727
"01","Bergewöhrden",2.64,36,15,21,14,"25779",9.209426,54.318469,"01051008",2011,0,1,0,0.0277777777777778
"01","Dellstedt",21.77,789,405,384,36,"25786",9.369143,54.237892,"01051019",2011,0,36,1,0.0456273764258555
"01","Delve",15.84,712,370,342,45,"25788",9.252364,54.303977,"01051020",2011,0,16,0,0.0224719101123595
"01","Dörpling",7.82,610,310,300,78,"25794",9.301925,54.260654,"01051023",2011,0,20,1,0.0327868852459016
"01","Fedderingen",9.69,278,137,141,29,"25779",9.132642,54.281143,"01051030",2011,0,8,0,0.0287769784172662
"01","Gaushorn",6.45,188,94,94,29,"25782",9.225317,54.194895,"01051035",2011,0,8,1,0.0425531914893617
"01","Glüsing",4.69,113,64,49,24,"25779",9.216421,54.274546,"01051036",2011,0,2,0,0.0176991150442478
"01","Groven",7.9,119,69,50,15,"25774",8.989147,54.300164,"01051038",2011,0,3,0,0.0252100840336134
"01","Hemme",16.53,561,298,263,34,"25774",9.010966,54.280209,"01051047",2011,0,21,1,0.0374331550802139
"01","Hennstedt",21.93,1914,968,946,87,"25779",9.168248,54.283636,"01051049",2011,0,72,0,0.0376175548589342
"01","Hövede",2.94,68,41,27,23,"25782",9.293408,54.243806,"01051052",2011,0,3,0,0.0441176470588235
"01","Hollingstedt",9.74,296,153,143,30,"25788",9.226796,54.290547,"01051053",2011,0,11,0,0.0371621621621622
"01","Karolinenkoog",17.55,135,71,64,8,"25774",8.965425,54.292378,"01051058",2011,0,5,0,0.037037037037037
"01","Kleve",12.81,415,212,203,32,"25779",9.123184,54.295633,"01051060",2011,0,7,1,0.0168674698795181
"01","Krempel",4.83,609,308,301,126,"25774",9.027606,54.320019,"01051061",2011,0,30,0,0.0492610837438424
"01","Lehe",18.63,1066,520,546,57,"25774",9.025334,54.344167,"01051065",2011,0,40,0,0.0375234521575985
"01","Linden",11.62,836,425,411,72,"25791",9.182428,54.252623,"01051068",2011,0,26,0,0.0311004784688995
"01","Lunden",4.65,1604,827,777,345,"25774",9.024248,54.330567,"01051071",2011,0,123,2,0.0766832917705736
"01","Norderheistedt",4.33,142,72,70,33,"25779",9.146139,54.24533,"01051080",2011,0,7,0,0.0492957746478873
"01","Pahlen",10.8,1180,589,591,109,"25794",9.296387,54.267812,"01051088",2011,0,50,0,0.0423728813559322
"01","Rehm-Flehde-Bargen",14.63,534,285,249,37,"25776",9.038383,54.291775,"01051092",2011,0,20,1,0.0374531835205993
"01","Sankt Annen",14.89,335,178,157,22,"25776",9.07975,54.345413,"01051096",2011,0,11,0,0.0328358208955224
"01","Schalkholz",12.5,582,281,301,47,"25782",9.257027,54.246244,"01051100",2011,0,17,0,0.0292096219931271
"01","Schlichting",12.5,218,106,112,17,"25776",9.089378,54.310139,"01051102",2011,0,9,1,0.0412844036697248
"01","Tellingstedt",21.1,2510,1225,1285,119,"25782",9.281892,54.219967,"01051114",2011,0,92,2,0.0366533864541833
"01","Tielenhemme",12.71,140,69,71,11,"25794",9.378654,54.269463,"01051117",2011,0,2,0,0.0142857142857143
"01","Wallen",1.86,31,17,14,17,"25788",9.269538,54.284499,"01051120",2011,0,0,0,0
"01","Welmbüttel",7.6,453,225,228,60,"25782",9.246825,54.196873,"01051125",2011,0,23,2,0.0507726269315673
"01","Westerborstel",4.14,115,54,61,28,"25782",9.2606,54.220136,"01051131",2011,0,2,0,0.0173913043478261
"01","Wiemerstedt",5.08,157,77,80,31,"25779",9.111231,54.269296,"01051133",2011,0,3,0,0.0191082802547771
"01","Wrohm",11.45,707,361,346,62,"25799",9.379504,54.212641,"01051136",2011,0,24,0,0.0339462517680339
"01","Süderdorf",16.21,373,190,183,23,"25782",9.343789,54.207468,"01051139",2011,0,6,0,0.0160857908847185
"01","Süderheistedt",8.44,570,273,297,68,"25779",9.148462,54.234829,"01051141",2011,0,17,0,0.0298245614035088
"01","Hemmingstedt",16.01,2923,1455,1468,183,"25770",9.073155,54.14876,"01051048",2011,0,104,4,0.0355798836811495
"01","Lieth",4.66,392,183,209,84,"25770",9.060773,54.15531,"01051067",2011,0,9,0,0.0229591836734694
"01","Lohe-Rickelshof",5.39,2042,968,1074,379,"25746",9.065768,54.187792,"01051069",2011,0,57,2,0.0279138099902057
"01","Neuenkirchen",25.14,1022,527,495,41,"25792",8.988144,54.23565,"01051075",2011,0,34,1,0.0332681017612524
"01","Norderwöhrden",18.47,289,156,133,16,"25746",9.000231,54.192782,"01051081",2011,0,2,0,0.0069204152249135
"01","Nordhastedt",26.56,2754,1402,1352,104,"25785",9.18191,54.17184,"01051082",2011,0,88,6,0.0319535221496006
"01","Ostrohe",6.67,940,459,481,141,"25746",9.130804,54.213999,"01051087",2011,0,29,0,0.0308510638297872
"01","Stelle-Wittenwurth",10.71,468,224,244,44,"25795",9.061114,54.262553,"01051107",2011,0,20,0,0.0427350427350427
"01","Wöhrden",21.77,1294,653,641,59,"25797",8.994507,54.165462,"01051113",2011,0,42,2,0.0324574961360124
"01","Weddingstedt",17.79,2259,1103,1156,127,"25795",9.088862,54.239275,"01051122",2011,0,65,2,0.0287737937140328
"01","Wesseln",3.76,1385,693,692,368,"25746",9.075442,54.208326,"01051130",2011,0,35,0,0.0252707581227437
"01","Albersdorf",17.12,3468,1701,1767,203,"25767",9.283995,54.146556,"01051001",2011,0,172,6,0.04959630911188
"01","Arkebek",6.92,239,118,121,35,"25767",9.250324,54.159662,"01051002",2011,0,14,0,0.0585774058577406
"01","Bargenstedt",11.9,910,440,470,76,"25704",9.144198,54.095593,"01051004",2011,0,28,0,0.0307692307692308
"01","Barlt",22.88,787,397,390,34,"25719",9.058002,54.012443,"01051006",2011,0,24,1,0.0304955527318933
"01","Bunsoh",11.75,862,446,416,73,"25767",9.320225,54.165522,"01051015",2011,0,22,0,0.0255220417633411
"01","Busenwurth",10.09,288,159,129,29,"25719",9.041309,54.041611,"01051017",2011,0,11,0,0.0381944444444444
"01","Elpersbüttel",30.17,879,449,430,29,"25704",9.047155,54.072963,"01051027",2011,0,26,1,0.0295790671217292
"01","Epenwöhrden",13.52,799,404,395,59,"25704",9.052894,54.112805,"01051028",2011,0,27,0,0.0337922403003755
"01","Gudendorf",6.04,401,197,204,66,"25693",9.108199,54.024745,"01051039",2011,0,9,0,0.0224438902743142
"01","Immenstedt",3.09,99,40,59,32,"25767",9.299737,54.180685,"01051054",2011,0,2,0,0.0202020202020202
"01","Krumstedt",15.89,533,260,273,34,"25727",9.177953,54.068683,"01051063",2011,0,8,0,0.0150093808630394
"01","Meldorf, Stadt",21.25,7364,3561,3803,347,"25704",9.068784,54.090944,"01051074",2011,0,325,21,0.0441336230309614
"01","Nindorf",8.73,1183,605,578,136,"25704",9.114943,54.086721,"01051078",2011,0,20,1,0.0169061707523246
"01","Odderade",11.26,318,160,158,28,"25785",9.190794,54.139383,"01051083",2011,0,9,0,0.0283018867924528
"01","Offenbüttel",13.95,284,140,144,20,"25767",9.358038,54.169258,"01051085",2011,0,4,0,0.0140845070422535
"01","Osterrade",17.09,442,231,211,26,"25767",9.353264,54.190212,"01051086",2011,0,14,0,0.0316742081447964
"01","Sarzbüttel",13.39,729,372,357,54,"25785",9.184288,54.118971,"01051098",2011,0,18,0,0.0246913580246914
"01","Schafstedt",18.16,1321,661,660,73,"25725",9.293675,54.079914,"01051099",2011,0,37,0,0.0280090840272521
"01","Schrum",5,76,42,34,15,"25782",9.251666,54.187228,"01051104",2011,0,3,0,0.0394736842105263
"01","Wennbüttel",4.59,82,36,46,18,"25767",9.32237,54.137968,"01051126",2011,0,1,0,0.0121951219512195
"01","Windbergen",17.31,826,426,400,48,"25729",9.117929,54.044948,"01051134",2011,0,30,0,0.036319612590799
"01","Wolmersdorf",6.1,333,168,165,55,"25704",9.103978,54.077113,"01051135",2011,0,2,0,0.00600600600600601
"01","Nordermeldorf",34.1,625,329,296,18,"25704",9.013655,54.104638,"01051137",2011,0,19,1,0.0304
"01","Tensbüttel-Röst",19.36,685,339,346,35,"25767",9.237322,54.116571,"01051138",2011,0,21,4,0.0306569343065693
"01","Büsum",8.48,5037,2345,2692,594,"25761",8.860613,54.129252,"01051013",2011,0,215,18,0.0426841373833631
"01","Büsumer Deichhausen",2.87,340,135,205,118,"25761",8.890088,54.136174,"01051014",2011,0,14,0,0.0411764705882353
"01","Friedrichsgabekoog",8.62,54,22,32,6,"25764",8.941082,54.157515,"01051033",2011,0,1,0,0.0185185185185185
"01","Hedwigenkoog",16.36,283,132,151,17,"25761",8.840952,54.177985,"01051043",2011,0,4,0,0.0141342756183746
"01","Hellschen-Heringsand-Unterschaar",7.02,180,82,98,26,"25764",8.872881,54.194535,"01051045",2011,0,5,0,0.0277777777777778
"01","Hillgroven",3.6,82,52,30,23,"25764",8.874901,54.227921,"01051050",2011,0,2,0,0.024390243902439
"01","Norddeich",6.9,408,214,194,59,"25764",8.899963,54.218057,"01051079",2011,0,15,0,0.0367647058823529
"01","Oesterdeichstrich",4.63,284,145,139,61,"25761",8.900566,54.158891,"01051084",2011,0,5,0,0.0176056338028169
"01","Reinsbüttel",6.83,443,217,226,65,"25764",8.911056,54.179073,"01051093",2011,0,8,0,0.018058690744921
"01","Schülp",9.27,484,244,240,52,"25764",8.929969,54.241672,"01051105",2011,0,16,0,0.0330578512396694
"01","Strübbel",4.4,85,40,45,19,"25792",8.971811,54.260388,"01051108",2011,0,1,0,0.0117647058823529
"01","Süderdeich",6.64,507,252,255,76,"25764",8.91131,54.201711,"01051109",2011,0,27,1,0.0532544378698225
"01","Warwerort",4.57,288,146,142,63,"25761",8.921722,54.141176,"01051121",2011,0,9,0,0.03125
"01","Wesselburen, Stadt",5.14,3021,1433,1588,588,"25764",8.920686,54.212158,"01051127",2011,0,168,11,0.0556107249255213
"01","Wesselburener Deichhausen",5.07,134,66,68,26,"25764",8.937237,54.174947,"01051128",2011,0,6,0,0.0447761194029851
"01","Wesselburenerkoog",21.88,117,60,57,5,"25764",8.87616,54.239245,"01051129",2011,0,4,0,0.0341880341880342
"01","Westerdeichstrich",7.49,923,457,466,123,"25761",8.863516,54.162005,"01051132",2011,0,36,1,0.0390032502708559
"01","Oesterwurth",14.19,262,139,123,18,"25764",8.976801,54.210346,"01051140",2011,0,9,0,0.0343511450381679
"01","Geesthacht, Stadt",33.19,29481,14332,15149,888,"21502",10.371622,53.433384,"01053032",2011,0,1398,277,0.0474203724432685
"01","Lauenburg/ Elbe, Stadt",9.54,11234,5598,5636,1178,"21481",10.554267,53.374188,"01053083",2011,0,678,109,0.0603525013352323
"01","Mölln, Stadt",25.05,18460,8829,9631,737,"23879",10.691022,53.629521,"01053090",2011,0,804,105,0.0435536294691224
"01","Ratzeburg, Stadt",30.29,13662,6406,7256,451,"23909",10.774491,53.699024,"01053100",2011,0,589,42,0.043112282242717
"01","Schwarzenbek, Stadt",11.56,15173,7393,7780,1313,"21493",10.477662,53.502645,"01053116",2011,0,595,85,0.0392143939893231
"01","Wentorf bei Hamburg",6.87,11688,5537,6151,1701,"21465",10.251899,53.491012,"01053129",2011,0,208,25,0.0177960301163587
"01","Behlendorf",10.26,387,196,191,38,"23919",10.667845,53.699475,"01053008",2011,0,8,1,0.020671834625323
"01","Berkenthin",10.25,2030,1002,1028,198,"23919",10.638296,53.734568,"01053009",2011,0,42,2,0.0206896551724138
"01","Bliestorf",10.35,648,305,343,63,"23847",10.602526,53.768796,"01053011",2011,0,5,1,0.00771604938271605
"01","Düchelsdorf",3.01,160,84,76,53,"23847",10.580373,53.737072,"01053024",2011,0,3,0,0.01875
"01","Göldenitz",5.15,233,120,113,45,"23919",10.631501,53.722024,"01053034",2011,0,6,0,0.0257510729613734
"01","Kastorf",6.9,1196,600,596,173,"23847",10.570133,53.748874,"01053061",2011,0,23,1,0.0192307692307692
"01","Klempau",10.07,600,304,296,60,"23628",10.660387,53.762851,"01053067",2011,0,9,0,0.015
"01","Krummesse",3.35,1502,718,784,448,"23628",10.641945,53.780122,"01053075",2011,0,35,1,0.0233022636484687
"01","Niendorf bei Berkenthin",3.99,198,96,102,50,"23919",10.626157,53.702417,"01053094",2011,0,9,1,0.0454545454545455
"01","Rondeshagen",9.51,857,432,425,90,"23919",10.630879,53.752212,"01053103",2011,0,12,0,0.014002333722287
"01","Sierksrade",4,340,173,167,85,"23847",10.600344,53.736554,"01053120",2011,0,16,0,0.0470588235294118
"01","Alt Mölln",6.44,914,449,465,142,"23881",10.658165,53.622774,"01053002",2011,0,20,1,0.0218818380743982
"01","Bälau",6.5,244,106,138,38,"23881",10.621738,53.616381,"01053005",2011,0,7,0,0.0286885245901639
"01","Borstorf",8.65,287,139,148,33,"23881",10.564234,53.613074,"01053013",2011,0,6,0,0.0209059233449477
"01","Breitenfelde",12.54,1819,925,894,145,"23881",10.632977,53.605112,"01053014",2011,0,57,3,0.0313358988455195
"01","Grambek",12.66,425,201,224,34,"23883",10.680679,53.574024,"01053037",2011,0,8,0,0.0188235294117647
"01","Hornbek",5.89,180,90,90,31,"21514",10.648547,53.558899,"01053056",2011,0,7,0,0.0388888888888889
"01","Lehmrade",11.4,485,234,251,43,"23883",10.752721,53.5947,"01053084",2011,0,12,0,0.0247422680412371
"01","Niendorf/ Stecknitz",8.41,608,302,306,72,"23881",10.609243,53.587227,"01053095",2011,0,20,3,0.0328947368421053
"01","Schretstaken",8.47,500,251,249,59,"21493",10.55408,53.58907,"01053113",2011,0,8,0,0.016
"01","Talkau",4.88,529,265,264,108,"21493",10.569209,53.577156,"01053125",2011,0,9,0,0.0170132325141777
"01","Woltersdorf",7.9,268,135,133,34,"21516",10.639911,53.5768,"01053134",2011,0,6,0,0.0223880597014925
"01","Besenthal",12.65,77,44,33,6,"23899",10.743239,53.530138,"01053010",2011,0,0,0,0
"01","Bröthen",10.69,272,142,130,25,"21514",10.667504,53.480409,"01053015",2011,0,5,0,0.0183823529411765
"01","Büchen",16.85,5602,2748,2854,332,"21514",10.616481,53.480926,"01053020",2011,0,168,11,0.0299892895394502
"01","Fitzen",9.11,370,182,188,41,"21514",10.646669,53.493942,"01053029",2011,0,7,0,0.0189189189189189
"01","Göttin",5.21,51,27,24,10,"21514",10.70332,53.533922,"01053035",2011,0,1,0,0.0196078431372549
"01","Gudow",42.26,1621,806,815,38,"23899",10.771254,53.555806,"01053046",2011,0,39,0,0.0240592227020358
"01","Güster",7.78,1284,639,645,165,"21514",10.680582,53.539519,"01053048",2011,0,23,0,0.0179127725856698
"01","Klein Pampau",4.17,625,310,315,150,"21514",10.586655,53.512681,"01053064",2011,0,22,0,0.0352
"01","Langenlehsten",23.37,163,82,81,7,"21514",10.740373,53.499816,"01053080",2011,0,4,0,0.0245398773006135
"01","Müssen",11.46,953,481,472,83,"21516",10.562041,53.494948,"01053092",2011,0,24,0,0.0251836306400839
"01","Roseburg",16.23,498,251,247,31,"21514",10.625016,53.531303,"01053104",2011,0,9,0,0.0180722891566265
"01","Schulendorf",11.39,478,249,229,42,"21516",10.561815,53.473309,"01053115",2011,0,7,0,0.0146443514644351
"01","Siebeneichen",4.68,258,130,128,55,"21514",10.618595,53.510758,"01053119",2011,0,7,0,0.0271317829457364
"01","Tramm",6.75,345,171,174,51,"21516",10.614693,53.563231,"01053126",2011,0,5,0,0.0144927536231884
"01","Witzeeze",10.46,907,428,479,87,"21514",10.610143,53.452651,"01053132",2011,0,19,0,0.0209481808158765
"01","Aumühle",3.47,3021,1362,1659,871,"21521",10.313369,53.528449,"01053003",2011,0,48,2,0.015888778550149
"01","Börnsen",8.42,4160,2051,2109,494,"21039",10.285512,53.476625,"01053012",2011,0,86,7,0.0206730769230769
"01","Dassendorf",7.95,3107,1545,1562,391,"21521",10.372664,53.488608,"01053023",2011,0,54,0,0.0173801094303186
"01","Escheburg",8.91,3375,1698,1677,379,"21039",10.309429,53.467129,"01053028",2011,0,69,6,0.0204444444444444
"01","Hamwarde",6.68,762,394,368,114,"21502",10.421396,53.452846,"01053050",2011,0,22,2,0.0288713910761155
"01","Hohenhorn",6.93,509,263,246,73,"21526",10.367641,53.475563,"01053053",2011,0,11,0,0.0216110019646365
"01","Kröppelshagen-Fahrendorf",8.37,1159,579,580,138,"21529",10.315197,53.488589,"01053072",2011,0,18,1,0.0155306298533218
"01","Wiershop",5.15,162,77,85,31,"21502",10.451894,53.4425,"01053131",2011,0,2,0,0.0123456790123457
"01","Wohltorf",5.97,2334,1117,1217,391,"21521",10.291253,53.517252,"01053133",2011,0,32,2,0.0137103684661525
"01","Worth",6.07,159,75,84,26,"21502",10.409894,53.467424,"01053135",2011,0,2,0,0.0125786163522013
"01","Basedow",7.47,712,379,333,95,"21483",10.583591,53.41615,"01053006",2011,0,23,0,0.0323033707865169
"01","Buchhorst",5.19,169,80,89,33,"21481",10.568335,53.384993,"01053019",2011,0,3,1,0.0177514792899408
"01","Dalldorf",6.05,367,188,179,61,"21483",10.610808,53.435819,"01053022",2011,0,6,0,0.0163487738419619
"01","Juliusburg",6.04,192,86,106,32,"21483",10.506017,53.416313,"01053058",2011,0,5,0,0.0260416666666667
"01","Krüzen",8.25,347,176,171,42,"21483",10.527112,53.401518,"01053073",2011,0,5,0,0.0144092219020173
"01","Krukow",7.94,172,95,77,22,"21483",10.478186,53.418864,"01053074",2011,0,3,0,0.0174418604651163
"01","Lanze",9.05,396,205,191,44,"21483",10.60422,53.38637,"01053082",2011,0,6,0,0.0151515151515152
"01","Lütau",11.24,704,359,345,63,"21483",10.545404,53.43586,"01053087",2011,0,17,0,0.0241477272727273
"01","Schnakenbek",13.02,855,416,439,66,"21481",10.50018,53.385425,"01053111",2011,0,14,1,0.016374269005848
"01","Wangelau",6.52,214,106,108,33,"21483",10.546476,53.453653,"01053128",2011,0,4,0,0.0186915887850467
"01","Albsfelde",4.18,60,31,29,14,"23909",10.694451,53.679957,"01053001",2011,0,0,0,0
"01","Bäk",4.3,846,408,438,197,"23909",10.787081,53.716344,"01053004",2011,0,15,0,0.0177304964539007
"01","Brunsmark",4.29,163,85,78,38,"23883",10.750236,53.617105,"01053016",2011,0,6,0,0.0368098159509202
"01","Buchholz",2.93,235,115,120,80,"23911",10.745377,53.731393,"01053018",2011,0,2,0,0.00851063829787234
"01","Einhaus",2.53,374,182,192,148,"23911",10.725697,53.714135,"01053026",2011,0,6,0,0.0160427807486631
"01","Fredeburg",10.09,31,14,17,3,"23909",10.727579,53.674357,"01053030",2011,0,0,0,0
"01","Giesensdorf",2.73,119,60,59,44,"23909",10.71365,53.688272,"01053033",2011,0,4,0,0.0336134453781513
"01","Groß Disnack",5.99,86,51,35,14,"23911",10.690693,53.741417,"01053040",2011,0,1,0,0.0116279069767442
"01","Groß Grönau",4.9,3550,1733,1817,724,"23627",10.750476,53.801386,"01053041",2011,0,58,5,0.0163380281690141
"01","Groß Sarau",17.08,927,453,474,54,"23627",10.73752,53.771585,"01053043",2011,0,17,3,0.0183387270765912
"01","Harmsdorf",3.57,291,142,149,82,"23911",10.725868,53.700407,"01053051",2011,0,3,0,0.0103092783505155
"01","Hollenbek",7.21,441,226,215,61,"23883",10.819161,53.592192,"01053054",2011,0,19,0,0.0430839002267574
"01","Horst",11.93,224,122,102,19,"23883",10.771155,53.625103,"01053057",2011,0,3,0,0.0133928571428571
"01","Kittlitz",17.73,261,142,119,15,"23911",10.918868,53.664235,"01053062",2011,0,8,0,0.0306513409961686
"01","Klein Zecher",9.11,235,112,123,26,"23883",10.872803,53.577413,"01053066",2011,0,5,0,0.0212765957446809
"01","Kulpin",6.07,234,113,121,39,"23911",10.695812,53.710089,"01053078",2011,0,4,0,0.0170940170940171
"01","Mechow",4.43,111,57,54,25,"23909",10.802416,53.717467,"01053088",2011,0,1,0,0.00900900900900901
"01","Mustin",11.88,725,360,365,61,"23911",10.886234,53.68453,"01053093",2011,0,10,1,0.0137931034482759
"01","Pogeez",4.51,377,199,178,84,"23911",10.729434,53.750928,"01053098",2011,0,6,0,0.0159151193633952
"01","Römnitz",5.15,61,26,35,12,"23909",10.769067,53.710715,"01053102",2011,0,1,0,0.0163934426229508
"01","Salem",25.11,581,287,294,23,"23911",10.827964,53.656395,"01053107",2011,0,10,0,0.0172117039586919
"01","Schmilau",11.55,567,277,290,49,"23911",10.755984,53.664589,"01053110",2011,0,10,2,0.017636684303351
"01","Seedorf",27.89,525,272,253,19,"23883",10.866842,53.619222,"01053117",2011,0,12,0,0.0228571428571429
"01","Sterley",21.39,947,462,485,44,"23883",10.817793,53.620149,"01053123",2011,0,20,2,0.0211193241816262
"01","Ziethen",11.18,1009,496,513,90,"23911",10.809321,53.693695,"01053136",2011,0,19,5,0.0188305252725471
"01","Basthorst",10.82,405,213,192,37,"21493",10.471389,53.576615,"01053007",2011,0,9,0,0.0222222222222222
"01","Brunstorf",13.76,614,316,298,45,"21524",10.425938,53.491563,"01053017",2011,0,15,0,0.0244299674267101
"01","Dahmker",2.04,150,83,67,74,"22946",10.444516,53.58782,"01053021",2011,0,2,0,0.0133333333333333
"01","Elmenhorst",13,925,490,435,71,"21493",10.537551,53.544875,"01053027",2011,0,16,1,0.0172972972972973
"01","Fuhlenhagen",5.74,296,139,157,52,"21493",10.526645,53.57303,"01053031",2011,0,4,0,0.0135135135135135
"01","Grabau",4.1,280,132,148,68,"21493",10.519825,53.513608,"01053036",2011,0,3,0,0.0107142857142857
"01","Groß Pampau",4.32,139,69,70,32,"21493",10.55974,53.520191,"01053042",2011,0,6,0,0.0431654676258993
"01","Grove",5.28,238,126,112,45,"21493",10.492067,53.528122,"01053045",2011,0,2,0,0.00840336134453781
"01","Gülzow",17.07,1236,639,597,72,"21483",10.490938,53.442249,"01053047",2011,0,27,2,0.0218446601941748
"01","Hamfelde",3.47,455,192,263,131,"22929",10.44893,53.597194,"01053049",2011,0,7,0,0.0153846153846154
"01","Havekost",5.91,155,73,82,26,"21493",10.472892,53.539891,"01053052",2011,0,4,0,0.0258064516129032
"01","Kankelau",4.21,219,113,106,52,"21514",10.56832,53.54931,"01053059",2011,0,3,0,0.0136986301369863
"01","Kasseburg",7.89,567,279,288,72,"22929",10.415258,53.567316,"01053060",2011,0,8,1,0.0141093474426808
"01","Köthel",1.52,289,155,134,190,"22929",10.510001,53.606935,"01053070",2011,0,4,0,0.013840830449827
"01","Kollow",8.21,619,302,317,75,"21527",10.458799,53.463154,"01053071",2011,0,8,0,0.012924071082391
"01","Kuddewörde",7.34,1349,651,698,184,"22958",10.4019,53.58729,"01053076",2011,0,15,1,0.011119347664937
"01","Möhnsen",7.47,556,274,282,74,"21493",10.469197,53.559973,"01053089",2011,0,13,0,0.0233812949640288
"01","Mühlenrade",3.74,194,107,87,52,"21493",10.48775,53.595838,"01053091",2011,0,3,0,0.0154639175257732
"01","Sahms",5.94,377,185,192,63,"21493",10.532891,53.527525,"01053106",2011,0,6,0,0.0159151193633952
"01","Duvensee",12.4,509,238,271,41,"23898",10.568,53.693065,"01053025",2011,0,11,1,0.0216110019646365
"01","Grinau",2.74,315,161,154,115,"23847",10.549746,53.775531,"01053038",2011,0,3,0,0.00952380952380952
"01","Groß Boden",2.7,197,103,94,73,"23847",10.452871,53.752712,"01053039",2011,0,4,0,0.0203045685279188
"01","Groß Schenkenberg",6.52,541,267,274,83,"23860",10.564879,53.793491,"01053044",2011,0,14,0,0.0258780036968577
"01","Klinkrade",7.4,575,285,290,78,"23898",10.55033,53.716091,"01053068",2011,0,11,0,0.0191304347826087
"01","Koberg",11.98,752,381,371,63,"23881",10.52596,53.639594,"01053069",2011,0,17,0,0.0226063829787234
"01","Kühsen",7.28,382,180,202,52,"23898",10.615824,53.682661,"01053077",2011,0,6,0,0.0157068062827225
"01","Labenz",5.75,818,413,405,142,"23898",10.526046,53.708831,"01053079",2011,0,16,1,0.019559902200489
"01","Lankau",19.12,493,260,233,26,"23881",10.665092,53.668023,"01053081",2011,0,11,0,0.0223123732251521
"01","Linau",9.66,1214,624,590,126,"22959",10.46755,53.643932,"01053085",2011,0,25,2,0.0205930807248764
"01","Lüchow",4.62,196,97,99,42,"23898",10.529517,53.690744,"01053086",2011,0,9,0,0.0459183673469388
"01","Nusse",6.22,1026,513,513,165,"23896",10.575979,53.65908,"01053096",2011,0,29,2,0.0282651072124756
"01","Panten",13.83,706,366,340,51,"23896",10.61977,53.664571,"01053097",2011,0,16,0,0.0226628895184136
"01","Poggensee",5.44,347,162,185,64,"23896",10.579621,53.640461,"01053099",2011,0,4,0,0.0115273775216138
"01","Ritzerau",11.11,285,138,147,26,"23896",10.567545,53.663002,"01053101",2011,0,6,0,0.0210526315789474
"01","Sandesneben",6.13,1691,858,833,276,"23898",10.497041,53.687957,"01053108",2011,0,26,1,0.0153755174452986
"01","Schiphorst",8.15,596,294,302,73,"23847",10.461626,53.70836,"01053109",2011,0,9,0,0.0151006711409396
"01","Schönberg",14.78,1333,683,650,90,"22929",10.433053,53.677153,"01053112",2011,0,22,1,0.0165041260315079
"01","Schürensöhlen",2.75,147,77,70,53,"23847",10.47204,53.763454,"01053114",2011,0,1,0,0.00680272108843537
"01","Siebenbäumen",8.82,646,317,329,73,"23847",10.525767,53.749377,"01053118",2011,0,15,0,0.0232198142414861
"01","Sirksfelde",8.63,301,155,146,35,"23898",10.509772,53.665338,"01053121",2011,0,6,0,0.0199335548172757
"01","Steinhorst",16.37,580,298,282,35,"23847",10.48314,53.720134,"01053122",2011,0,10,0,0.0172413793103448
"01","Stubben",5.24,384,176,208,73,"23847",10.430679,53.732928,"01053124",2011,0,6,0,0.015625
"01","Walksfelde",3.51,177,94,83,50,"23896",10.5751,53.631901,"01053127",2011,0,3,0,0.0169491525423729
"01","Wentorf (Amt Sandesneben)",4.99,667,329,338,134,"23898",10.47491,53.67663,"01053130",2011,0,8,0,0.0119940029985007
"01","Friedrichstadt, Stadt",4.03,2368,1109,1259,588,"25840",9.087943,54.37346,"01054033",2011,0,181,8,0.0764358108108108
"01","Husum, Stadt",25.81,22076,10518,11558,855,"25813",9.050148,54.476472,"01054056",2011,0,1377,126,0.0623754303315818
"01","Reußenköge",45.91,338,177,161,7,"25821",8.924613,54.58543,"01054108",2011,0,9,0,0.0266272189349112
"01","Tönning, Stadt",44.41,4866,2385,2481,110,"25832",8.94334,54.319739,"01054138",2011,0,265,13,0.0544595150020551
"01","Sylt",57.32,15125,7279,7846,264,"25980",8.323667,54.89326,"01054168",2011,0,382,43,0.0252561983471074
"01","Garding, Kirchspiel",14.89,358,165,193,24,"25836",8.791505,54.321856,"01054035",2011,0,3,0,0.00837988826815642
"01","Garding, Stadt",3.06,2603,1206,1397,851,"25836",8.778217,54.327961,"01054036",2011,0,150,6,0.0576258163657319
"01","Grothusenkoog",3.27,22,10,12,7,"25836",8.759033,54.302738,"01054040",2011,0,NA,NA,NA
"01","Katharinenheerd",8.4,163,76,87,19,"25836",8.828074,54.335199,"01054063",2011,0,6,0,0.0368098159509202
"01","Kotzenbüll",7.77,224,117,107,29,"25832",8.907487,54.333777,"01054072",2011,0,12,0,0.0535714285714286
"01","Norderfriedrichskoog",5.31,40,23,17,8,"25870",8.893583,54.400271,"01054090",2011,0,0,0,0
"01","Oldenswort",45.84,1248,629,619,27,"25870",8.942988,54.372281,"01054095",2011,0,46,1,0.0368589743589744
"01","Osterhever",18.46,241,115,126,13,"25836",8.765555,54.385462,"01054100",2011,0,6,0,0.024896265560166
"01","Poppenbüll",15.52,197,96,101,13,"25836",8.761168,54.361585,"01054104",2011,0,6,0,0.0304568527918782
"01","Sankt Peter-Ording",28.32,4069,1926,2143,144,"25826",8.640495,54.30228,"01054113",2011,0,126,12,0.0309658392725485
"01","Tating",29.49,946,467,479,32,"25881",8.708512,54.325497,"01054134",2011,0,38,2,0.040169133192389
"01","Tetenbüll",36.48,607,287,320,17,"25882",8.828234,54.352013,"01054135",2011,0,14,0,0.0230642504118616
"01","Tümlauer Koog",6.2,98,59,39,16,"25881",8.689756,54.348337,"01054140",2011,0,2,0,0.0204081632653061
"01","Vollerwiek",4.62,204,109,95,44,"25836",8.794693,54.29068,"01054145",2011,0,4,0,0.0196078431372549
"01","Welt",8.2,215,103,112,26,"25836",8.79406,54.302401,"01054148",2011,0,3,1,0.013953488372093
"01","Westerhever",13.32,124,64,60,9,"25881",8.67563,54.382315,"01054150",2011,0,3,0,0.0241935483870968
"01","Hörnum (Sylt)",5.64,1015,503,512,180,"25997",8.286545,54.7565,"01054046",2011,0,20,2,0.0197044334975369
"01","Kampen (Sylt)",8.42,609,317,292,72,"25999",8.342293,54.955507,"01054061",2011,0,8,1,0.013136288998358
"01","List",18.47,2599,1772,827,141,"25992",8.436182,55.020026,"01054078",2011,0,35,3,0.0134667179684494
"01","Wenningstedt-Braderup (Sylt)",6.16,1463,650,813,238,"25996",8.340499,54.937796,"01054149",2011,0,25,2,0.0170881749829118
"01","Ahrenviöl",10.11,498,249,249,49,"25885",9.206894,54.531253,"01054003",2011,0,25,0,0.0502008032128514
"01","Ahrenviölfeld",7.29,271,135,136,37,"25885",9.274129,54.534769,"01054004",2011,0,7,0,0.025830258302583
"01","Behrendorf",15.29,574,301,273,38,"25850",9.227589,54.562059,"01054011",2011,0,14,0,0.024390243902439
"01","Bondelum",9.18,209,112,97,23,"25850",9.26689,54.556658,"01054013",2011,0,7,0,0.0334928229665072
"01","Haselund",12.79,906,471,435,71,"25855",9.182926,54.591703,"01054041",2011,0,24,0,0.0264900662251656
"01","Immenstedt",14.61,694,360,334,48,"25885",9.162502,54.541448,"01054057",2011,0,14,0,0.0201729106628242
"01","Löwenstedt",19.62,678,338,340,35,"25864",9.172171,54.621385,"01054079",2011,0,16,1,0.023598820058997
"01","Norstedt",13.5,445,224,221,33,"25884",9.129369,54.588558,"01054092",2011,0,12,1,0.0269662921348315
"01","Oster-Ohrstedt",11.29,630,328,302,56,"25885",9.225068,54.51403,"01054101",2011,0,25,0,0.0396825396825397
"01","Schwesing",15.63,928,462,466,59,"25813",9.134621,54.493898,"01054118",2011,0,30,0,0.0323275862068966
"01","Sollwitt",10.95,283,136,147,26,"25884",9.228594,54.594737,"01054123",2011,0,6,0,0.0212014134275618
"01","Viöl",18.95,2025,1005,1020,107,"25884",9.18063,54.568957,"01054144",2011,0,60,3,0.0296296296296296
"01","Wester-Ohrstedt",18.54,1076,527,549,58,"25885",9.190063,54.507225,"01054152",2011,0,47,0,0.0436802973977695
"01","Gröde",2.52,5,4,1,2,"25869",8.717442,54.631685,"01054039",2011,0,NA,NA,NA
"01","Hallig Hooge",5.78,84,39,45,15,"25859",8.543775,54.56883,"01054050",2011,0,2,0,0.0238095238095238
"01","Langeneß",11.57,118,55,63,10,"25863",8.613192,54.637403,"01054074",2011,0,2,0,0.0169491525423729
"01","Pellworm",37.44,1041,466,575,28,"25849",8.656056,54.521284,"01054103",2011,0,26,0,0.0249759846301633
"01","Alkersum",9.07,423,191,232,47,"25938",8.511243,54.708244,"01054005",2011,0,14,1,0.033096926713948
"01","Borgsum",5.51,349,178,171,63,"25938",8.460009,54.699988,"01054015",2011,0,4,0,0.0114613180515759
"01","Dunsum",2.72,66,32,34,24,"25938",8.414539,54.73043,"01054025",2011,0,0,0,0
"01","Midlum",8.5,358,158,200,42,"25938",8.518625,54.714877,"01054083",2011,0,7,1,0.0195530726256983
"01","Nebel",11.96,922,431,491,77,"25946",8.35355,54.650915,"01054085",2011,0,18,1,0.0195227765726681
"01","Nieblum",7.86,607,282,325,77,"25938",8.489439,54.691947,"01054087",2011,0,13,2,0.0214168039538715
"01","Norddorf auf Amrum",5.9,592,252,340,100,"25946",8.332935,54.679638,"01054089",2011,0,18,1,0.0304054054054054
"01","Oevenum",10.87,469,220,249,43,"25938",8.530787,54.710093,"01054094",2011,0,10,0,0.0213219616204691
"01","Oldsum",13.31,571,255,316,43,"25938",8.448309,54.732398,"01054098",2011,0,9,1,0.0157618213660245
"01","Süderende",2.59,193,94,99,75,"25938",8.440415,54.726902,"01054129",2011,0,5,0,0.0259067357512953
"01","Utersum",5.26,413,187,226,79,"25938",8.407242,54.714455,"01054143",2011,0,8,0,0.0193704600484262
"01","Witsum",1.59,44,18,26,28,"25938",8.441059,54.698515,"01054158",2011,0,0,0,0
"01","Wittdün auf Amrum",2.6,741,333,408,285,"25946",8.3951,54.626651,"01054160",2011,0,29,3,0.039136302294197
"01","Wrixum",7.55,687,338,349,91,"25938",8.54813,54.699417,"01054163",2011,0,16,0,0.0232896652110626
"01","Wyk auf Föhr, Stadt",8.01,4413,2015,2398,551,"25938",8.568476,54.690337,"01054164",2011,0,142,10,0.0321776569227283
"01","Achtrup",29.9,1520,797,723,51,"25917",9.028319,54.788981,"01054001",2011,0,46,0,0.0302631578947368
"01","Aventoft",14.47,456,219,237,32,"25927",8.822142,54.901248,"01054009",2011,0,12,0,0.0263157894736842
"01","Bosbüll",6.33,220,105,115,35,"25899",8.860436,54.822785,"01054016",2011,0,7,0,0.0318181818181818
"01","Braderup",13.35,657,335,322,49,"25923",8.890292,54.835624,"01054017",2011,0,22,1,0.0334855403348554
"01","Bramstedtlund",13.85,200,99,101,14,"25926",9.087212,54.839934,"01054018",2011,0,8,0,0.04
"01","Dagebüll",36.92,896,435,461,24,"25899",8.706381,54.730209,"01054022",2011,0,20,0,0.0223214285714286
"01","Ellhöft",7.82,104,62,42,13,"25923",8.957602,54.888716,"01054027",2011,0,4,0,0.0384615384615385
"01","Friedrich-Wilhelm-Lübke-Koog",13.49,176,92,84,13,"25924",8.631938,54.862371,"01054034",2011,0,2,0,0.0113636363636364
"01","Holm",4,70,35,35,18,"25923",8.860525,54.831367,"01054048",2011,0,3,0,0.0428571428571429
"01","Humptrup",16.99,732,364,368,43,"25923",8.864537,54.863199,"01054055",2011,0,18,0,0.0245901639344262
"01","Karlum",14.46,217,99,118,15,"25926",8.975269,54.828646,"01054062",2011,0,5,0,0.0230414746543779
"01","Klanxbüll",10.63,921,457,464,87,"25924",8.679184,54.864428,"01054065",2011,0,31,1,0.0336590662323561
"01","Klixbüll",17.44,953,486,467,55,"25899",8.882447,54.805242,"01054068",2011,0,27,2,0.0283315844700944
"01","Ladelund",24.09,1345,655,690,56,"25926",9.02531,54.84075,"01054073",2011,0,41,1,0.0304832713754647
"01","Leck",29.79,7647,3726,3921,257,"25917",8.974571,54.771913,"01054076",2011,0,388,16,0.0507388518373218
"01","Lexgaard",5.24,58,36,22,11,"25923",8.943493,54.832022,"01054077",2011,0,1,0,0.0172413793103448
"01","Neukirchen",31.58,1263,649,614,40,"25927",8.733879,54.868905,"01054086",2011,0,41,1,0.0324623911322249
"01","Niebüll, Stadt",30.63,9372,4468,4904,306,"25899",8.829498,54.788141,"01054088",2011,0,364,26,0.0388390951771233
"01","Risum-Lindholm",36.03,3667,1819,1848,102,"25920",8.860834,54.758551,"01054109",2011,0,89,0,0.0242705208617398
"01","Rodenäs",19.84,427,222,205,22,"25924",8.70031,54.888387,"01054110",2011,0,10,0,0.0234192037470726
"01","Sprakebüll",11.37,236,122,114,21,"25917",9.076636,54.776471,"01054124",2011,0,7,1,0.0296610169491525
"01","Stadum",19.74,1000,519,481,51,"25917",9.050472,54.73601,"01054125",2011,0,21,0,0.021
"01","Stedesand",15.19,848,434,414,56,"25920",8.9217,54.738668,"01054126",2011,0,17,0,0.0200471698113208
"01","Süderlügum",26.59,2249,1115,1134,85,"25923",8.906501,54.871879,"01054131",2011,0,64,4,0.0284570920409071
"01","Tinningstedt",8.91,223,103,120,25,"25917",8.929787,54.811247,"01054136",2011,0,9,0,0.0403587443946188
"01","Uphusum",7.06,383,192,191,54,"25923",8.84998,54.841857,"01054142",2011,0,11,0,0.0287206266318538
"01","Westre",19.13,405,192,213,21,"25926",8.986696,54.855213,"01054154",2011,0,10,0,0.0246913580246914
"01","Galmsbüll",49.05,671,331,340,14,"25899",8.76882,54.76664,"01054165",2011,0,14,0,0.0208643815201192
"01","Emmelsbüll-Horsbüll",35.73,936,461,475,26,"25924",8.684788,54.821847,"01054166",2011,0,26,0,0.0277777777777778
"01","Enge-Sande",24.82,1129,561,568,45,"25917",8.969841,54.733386,"01054167",2011,0,27,0,0.0239149689991143
"01","Arlewatt",5.57,336,188,148,60,"25860",9.083425,54.539222,"01054007",2011,0,7,0,0.0208333333333333
"01","Drage",16.33,581,247,334,36,"25878",9.160731,54.354508,"01054023",2011,0,18,0,0.0309810671256454
"01","Elisabeth-Sophien-Koog",5.18,49,28,21,9,"25845",8.879209,54.510201,"01054026",2011,0,1,0,0.0204081632653061
"01","Fresendelf",2.6,96,59,37,37,"25876",9.248764,54.393379,"01054032",2011,0,3,0,0.03125
"01","Hattstedt",7,2515,1200,1315,359,"25856",9.024734,54.528073,"01054042",2011,0,74,3,0.0294234592445328
"01","Hattstedtermarsch",35.26,335,181,154,10,"25856",8.975187,54.548737,"01054043",2011,0,7,0,0.0208955223880597
"01","Horstedt",11.7,743,387,356,64,"25860",9.069281,54.525407,"01054052",2011,0,24,0,0.0323014804845222
"01","Hude",3.54,175,98,77,49,"25876",9.21582,54.387211,"01054054",2011,0,6,0,0.0342857142857143
"01","Koldenbüttel",25.8,913,459,454,35,"25840",9.068189,54.385117,"01054070",2011,0,24,1,0.0262869660460022
"01","Mildstedt",8.71,3811,1796,2015,438,"25866",9.094037,54.463491,"01054084",2011,0,96,3,0.0251902387824718
"01","Nordstrand",57.21,2196,1071,1125,38,"25845",8.868066,54.487179,"01054091",2011,0,62,0,0.0282331511839709
"01","Oldersbek",10.82,668,348,320,62,"25873",9.168623,54.44654,"01054096",2011,0,25,1,0.0374251497005988
"01","Olderup",9.94,438,233,205,44,"25860",9.112116,54.538176,"01054097",2011,0,15,0,0.0342465753424658
"01","Ostenfeld (Husum)",27.67,1551,777,774,56,"25872",9.230675,54.462865,"01054099",2011,0,46,0,0.0296582849774339
"01","Ramstedt",5.42,433,208,225,80,"25876",9.167101,54.399905,"01054105",2011,0,14,1,0.0323325635103926
"01","Rantrum",13.69,1645,835,810,120,"25873",9.129606,54.44052,"01054106",2011,0,49,0,0.0297872340425532
"01","Schwabstedt",19.64,1332,655,677,68,"25876",9.185237,54.395651,"01054116",2011,0,49,2,0.0367867867867868
"01","Seeth",13.56,678,412,266,50,"25878",9.163158,54.36593,"01054119",2011,0,16,1,0.023598820058997
"01","Simonsberg",17.09,794,403,391,46,"25813",8.972074,54.436644,"01054120",2011,0,22,1,0.0277078085642317
"01","Süderhöft",2.6,21,9,12,8,"25876",9.242489,54.381733,"01054130",2011,0,0,0,0
"01","Südermarsch",30.23,158,89,69,5,"25813",9.08217,54.425754,"01054132",2011,0,9,0,0.0569620253164557
"01","Uelvesbüll",10.23,254,127,127,25,"25889",8.935321,54.415443,"01054141",2011,0,3,0,0.0118110236220472
"01","Winnert",18.88,752,369,383,40,"25887",9.20138,54.433243,"01054156",2011,0,26,1,0.0345744680851064
"01","Wisch",3.05,122,59,63,40,"25876",9.154149,54.408531,"01054157",2011,0,2,0,0.0163934426229508
"01","Wittbek",19.91,807,412,395,41,"25872",9.204139,54.473433,"01054159",2011,0,28,0,0.0346964064436183
"01","Witzwort",28.14,994,493,501,35,"25889",8.984463,54.399484,"01054161",2011,0,35,0,0.0352112676056338
"01","Wobbenbüll",1.69,470,245,225,278,"25856",8.992696,54.530479,"01054162",2011,0,8,0,0.0170212765957447
"01","Ahrenshöft",8.79,512,256,256,58,"25853",9.068848,54.559097,"01054002",2011,0,10,0,0.01953125
"01","Almdorf",5.7,537,281,256,94,"25821",9.016496,54.579116,"01054006",2011,0,20,0,0.037243947858473
"01","Bargum",17.29,605,305,300,35,"25842",8.962782,54.705069,"01054010",2011,0,12,0,0.0198347107438017
"01","Bohmstedt",13.35,721,347,374,54,"25853",9.043841,54.581229,"01054012",2011,0,23,0,0.0319001386962552
"01","Bordelum",34.71,2002,1014,988,58,"25852",8.924941,54.636032,"01054014",2011,0,82,2,0.040959040959041
"01","Bredstedt, Stadt",9.75,4921,2334,2587,505,"25821",8.960957,54.620073,"01054019",2011,0,258,4,0.0524283682178419
"01","Breklum",10.06,2342,1144,1198,233,"25821",8.982126,54.60512,"01054020",2011,0,64,1,0.0273270708795901
"01","Drelsdorf",17.7,1270,643,627,72,"25853",9.039521,54.605858,"01054024",2011,0,43,1,0.0338582677165354
"01","Goldebek",10.18,354,175,179,35,"25862",9.145763,54.678915,"01054037",2011,0,5,0,0.0141242937853107
"01","Goldelund",12.02,381,189,192,32,"25862",9.106857,54.678718,"01054038",2011,0,19,0,0.0498687664041995
"01","Högel",16.28,440,213,227,27,"25858",9.057965,54.643091,"01054045",2011,0,12,0,0.0272727272727273
"01","Joldelund",19.12,736,375,361,38,"25862",9.135944,54.653712,"01054059",2011,0,19,0,0.0258152173913043
"01","Kolkerheide",2.1,59,29,30,28,"25862",9.130774,54.620406,"01054071",2011,0,0,0,0
"01","Langenhorn",47.4,3109,1529,1580,66,"25842",8.926359,54.676059,"01054075",2011,0,104,2,0.0334512705049855
"01","Lütjenholm",10.71,320,166,154,30,"25842",9.021561,54.684135,"01054080",2011,0,8,1,0.025
"01","Ockholm",18.64,357,190,167,19,"25842",8.827553,54.665128,"01054093",2011,0,6,1,0.0168067226890756
"01","Sönnebüll",4.29,270,135,135,63,"25821",8.995459,54.630955,"01054121",2011,0,11,0,0.0407407407407407
"01","Struckum",8.92,971,478,493,109,"25821",8.994073,54.588682,"01054128",2011,0,24,0,0.0247167868177137
"01","Vollstedt",6.18,172,90,82,28,"25821",9.032721,54.623716,"01054146",2011,0,4,0,0.0232558139534884
"01","Ahrensbök",95.37,8360,4098,4262,88,"23623",10.573059,54.011094,"01055001",2011,0,286,8,0.0342105263157895
"01","Bad Schwartau, Stadt",18.39,19698,9228,10470,1071,"23611",10.695908,53.92043,"01055004",2011,0,559,46,0.0283785155853386
"01","Bosau",64.25,3412,1728,1684,53,"23715",10.4299,54.104438,"01055007",2011,0,138,3,0.0404454865181712
"01","Dahme",9.11,1227,582,645,135,"23743",11.08163,54.223661,"01055010",2011,0,50,3,0.0407497962510187
"01","Eutin, Stadt",41.4,16933,8067,8866,409,"23701",10.614692,54.138855,"01055012",2011,0,773,43,0.0456505049311994
"01","Grömitz",51.11,7620,3621,3999,149,"23743",10.961101,54.149249,"01055016",2011,0,280,31,0.036745406824147
"01","Grube",20.2,961,457,504,48,"23743",11.03599,54.23209,"01055018",2011,0,37,1,0.0385015608740895
"01","Heiligenhafen, Stadt",18.32,9188,4492,4696,502,"23774",10.974622,54.373047,"01055021",2011,0,390,23,0.042446669569003
"01","Kellenhusen (Ostsee)",8.17,1053,477,576,129,"23743",11.060023,54.190748,"01055025",2011,0,44,4,0.0417853751187085
"01","Malente",69.06,10812,5136,5676,157,"23714",10.554871,54.171225,"01055028",2011,0,442,25,0.0408805031446541
"01","Neustadt in Holstein, Stadt",19.74,16288,8286,8002,825,"23730",10.81635,54.10563,"01055032",2011,0,504,48,0.030943025540275
"01","Oldenburg in Holstein, Stadt",39.68,9615,4629,4986,242,"23758",10.888211,54.292885,"01055033",2011,0,395,45,0.0410816432657306
"01","Ratekau",59.6,15508,7553,7955,260,"23626",10.735074,53.947822,"01055035",2011,0,443,18,0.0285659014702089
"01","Stockelsdorf",56.7,17120,8358,8762,302,"23617",10.649799,53.889315,"01055040",2011,0,358,23,0.020911214953271
"01","Süsel",75.31,5409,2689,2720,72,"23701",10.717997,54.076678,"01055041",2011,0,147,4,0.0271769273433167
"01","Timmendorfer Strand",20.13,9019,4210,4809,448,"23669",10.771081,53.99574,"01055042",2011,0,293,31,0.0324869719481095
"01","Scharbeutz",52.53,11704,5636,6068,223,"23683",10.750231,54.022792,"01055044",2011,0,358,30,0.0305878332194122
"01","Fehmarn, Stadt",185.48,12911,6254,6657,70,"23769",11.120128,54.478246,"01055046",2011,0,491,35,0.0380295871737278
"01","Göhl",21.2,1154,575,579,54,"23758",10.94185,54.284726,"01055014",2011,0,44,1,0.0381282495667244
"01","Gremersdorf",45.76,1463,749,714,32,"23758",10.927672,54.33283,"01055015",2011,0,50,0,0.0341763499658237
"01","Großenbrode",20.98,2070,978,1092,99,"23775",11.084269,54.369695,"01055017",2011,0,61,2,0.0294685990338164
"01","Heringsdorf",29.42,1058,546,512,36,"23777",11.003696,54.300431,"01055022",2011,0,36,0,0.0340264650283554
"01","Neukirchen",28.5,1170,593,577,41,"23779",11.015153,54.323811,"01055031",2011,0,51,1,0.0435897435897436
"01","Wangels",67.12,2191,1115,1076,33,"23758",10.763598,54.271569,"01055043",2011,0,68,0,0.031036056595162
"01","Beschendorf",8.54,546,251,295,64,"23738",10.873042,54.182742,"01055006",2011,0,14,0,0.0256410256410256
"01","Damlos",9.35,687,332,355,73,"23738",10.907708,54.243015,"01055011",2011,0,11,0,0.0160116448326055
"01","Harmsdorf",17.82,694,343,351,39,"23738",10.828831,54.243561,"01055020",2011,0,20,0,0.0288184438040346
"01","Kabelhorst",5.74,436,177,259,76,"23738",10.921118,54.215843,"01055023",2011,0,12,0,0.0275229357798165
"01","Lensahn",27.7,4862,2282,2580,176,"23738",10.883303,54.217545,"01055027",2011,0,229,8,0.0470999588646647
"01","Manhagen",9.63,391,195,196,41,"23738",10.913686,54.194998,"01055029",2011,0,15,0,0.0383631713554987
"01","Riepsdorf",25.81,1007,513,494,39,"23738",10.969731,54.22536,"01055036",2011,0,34,1,0.0337636544190665
"01","Altenkrempe",36.64,1132,562,570,31,"23730",10.825665,54.132979,"01055002",2011,0,20,0,0.0176678445229682
"01","Kasseedorf",33.77,1528,791,737,45,"23717",10.719867,54.164964,"01055024",2011,0,34,0,0.0222513089005236
"01","Schashagen",41.46,2495,1260,1235,60,"23730",10.883528,54.13427,"01055037",2011,0,62,4,0.0248496993987976
"01","Schönwalde am Bungsberg",39.06,2503,1212,1291,64,"23744",10.753452,54.18736,"01055038",2011,0,67,2,0.0267678785457451
"01","Sierksdorf",19.5,1583,772,811,81,"23730",10.768366,54.06626,"01055039",2011,0,32,2,0.0202147820593809
"01","Barmstedt, Stadt",17.17,9844,4824,5020,573,"25355",9.768595,53.790384,"01056002",2011,0,310,39,0.0314912637139374
"01","Elmshorn, Stadt",21.37,48993,23919,25074,2293,"25335",9.655259,53.754958,"01056015",2011,0,2575,561,0.052558528769416
"01","Halstenbek",12.58,16789,8170,8619,1335,"25469",9.837583,53.633897,"01056018",2011,0,339,30,0.0201917922449223
"01","Helgoland",4.2,1131,544,587,269,"27498",7.889063,54.181505,"01056025",2011,0,62,3,0.0548187444739169
"01","Pinneberg, Stadt",21.54,42851,20831,22020,1989,"25421",9.793233,53.660753,"01056039",2011,0,1476,347,0.0344449371076521
"01","Quickborn, Stadt",43.17,20677,10072,10605,479,"25451",9.898033,53.728836,"01056041",2011,0,376,48,0.0181844561590173
"01","Rellingen",13.18,13782,6705,7077,1046,"25462",9.829654,53.65213,"01056043",2011,0,270,20,0.0195907705703091
"01","Schenefeld, Stadt",9.99,18707,9124,9583,1873,"22869",9.822461,53.600981,"01056044",2011,0,454,70,0.0242689902175656
"01","Tornesch, Stadt",20.61,12930,6399,6531,627,"25436",9.718706,53.698257,"01056048",2011,0,300,40,0.0232018561484919
"01","Uetersen, Stadt",11.43,17829,8707,9122,1560,"25436",9.662395,53.684196,"01056049",2011,0,665,115,0.0372987828818218
"01","Wedel, Stadt",33.82,32360,15760,16600,957,"22880",9.705419,53.577352,"01056050",2011,0,1010,214,0.0312113720642769
"01","Klein Nordende",10.79,3049,1512,1537,283,"25336",9.654217,53.719568,"01056029",2011,0,55,1,0.0180387012135126
"01","Klein Offenseth-Sparrieshoop",16.92,2940,1486,1454,174,"25365",9.690397,53.804948,"01056030",2011,0,56,2,0.019047619047619
"01","Kölln-Reisiek",6.77,2857,1410,1447,422,"25337",9.705089,53.759231,"01056031",2011,0,47,6,0.0164508225411271
"01","Seester",11.57,957,466,491,83,"25370",9.59807,53.717708,"01056033",2011,0,16,1,0.0167189132706374
"01","Raa-Besenbek",12.99,555,269,286,43,"25335",9.597611,53.747962,"01056042",2011,0,10,0,0.018018018018018
"01","Seestermühe",23.35,891,445,446,38,"25371",9.56628,53.704049,"01056045",2011,0,18,0,0.0202020202020202
"01","Seeth-Ekholt",6.89,844,427,417,122,"25337",9.733303,53.736947,"01056046",2011,0,13,0,0.0154028436018957
"01","Haselau",18.88,1104,556,548,58,"25489",9.623635,53.660646,"01056019",2011,0,16,0,0.0144927536231884
"01","Haseldorf",18.08,1684,825,859,93,"25489",9.598382,53.635206,"01056020",2011,0,24,0,0.0142517814726841
"01","Hetlingen",24.1,1326,652,674,55,"25491",9.635425,53.607669,"01056027",2011,0,18,1,0.0135746606334842
"01","Bokel",16.02,642,327,315,40,"25364",9.733886,53.864193,"01056006",2011,0,16,0,0.0249221183800623
"01","Brande-Hörnerkirchen",13.14,1577,769,808,120,"25364",9.701628,53.853758,"01056010",2011,0,42,0,0.0266328471781864
"01","Osterhorn",6.38,416,214,202,65,"25364",9.698588,53.868678,"01056038",2011,0,6,1,0.0144230769230769
"01","Westerhorn",9.37,1288,622,666,137,"25364",9.682011,53.857844,"01056051",2011,0,29,1,0.0225155279503106
"01","Appen",20.28,5838,3341,2497,288,"25482",9.742705,53.659806,"01056001",2011,0,75,4,0.012846865364851
"01","Groß Nordende",5.64,725,350,375,129,"25436",9.649514,53.702069,"01056016",2011,0,9,1,0.0124137931034483
"01","Heidgraben",5.38,2480,1249,1231,461,"25436",9.680782,53.708552,"01056023",2011,0,40,2,0.0161290322580645
"01","Heist",9.96,2828,1435,1393,284,"25492",9.656575,53.654819,"01056024",2011,0,39,2,0.0137906647807638
"01","Holm",16.05,3095,1537,1558,193,"25488",9.671853,53.622062,"01056028",2011,0,46,4,0.0148626817447496
"01","Moorrege",10.76,4094,2037,2057,380,"25436",9.659073,53.668053,"01056036",2011,0,74,2,0.0180752320468979
"01","Neuendeich",8.54,526,243,283,62,"25436",9.600257,53.676281,"01056037",2011,0,3,0,0.00570342205323194
"01","Bevern",8.04,583,282,301,73,"25355",9.771041,53.755719,"01056003",2011,0,8,0,0.0137221269296741
"01","Bilsen",6.2,722,349,373,116,"25485",9.875975,53.770028,"01056004",2011,0,15,0,0.0207756232686981
"01","Bokholt-Hanredder",8.56,1267,663,604,148,"25335",9.727311,53.781752,"01056008",2011,0,26,2,0.0205209155485399
"01","Bullenkuhlen",3.94,362,192,170,92,"25355",9.751551,53.768585,"01056011",2011,0,8,0,0.0220994475138122
"01","Ellerhoop",10.8,1446,722,724,134,"25373",9.770845,53.727623,"01056014",2011,0,23,0,0.0159059474412171
"01","Groß Offenseth-Aspern",10.56,450,278,172,43,"25355",9.732345,53.817163,"01056017",2011,0,13,0,0.0288888888888889
"01","Heede",15.48,706,357,349,46,"25355",9.802297,53.783499,"01056022",2011,0,16,0,0.0226628895184136
"01","Hemdingen",16.42,1653,813,840,101,"25485",9.83664,53.755233,"01056026",2011,0,34,3,0.0205686630369026
"01","Langeln",10.28,533,284,249,52,"25485",9.853797,53.793929,"01056034",2011,0,10,0,0.0187617260787993
"01","Lutzhorn",21.72,812,417,395,37,"25355",9.783478,53.827341,"01056035",2011,0,12,0,0.0147783251231527
"01","Bönningstedt",12.05,4392,2156,2236,364,"25474",9.906377,53.662388,"01056005",2011,0,55,6,0.0125227686703097
"01","Borstel-Hohenraden",14.88,2308,1151,1157,155,"25494",9.82033,53.689503,"01056009",2011,0,34,0,0.0147313691507799
"01","Ellerbek",9.11,4277,2136,2141,469,"25474",9.869464,53.657165,"01056013",2011,0,72,6,0.016834229600187
"01","Hasloh",11.07,3416,1698,1718,309,"25474",9.91173,53.694023,"01056021",2011,0,49,1,0.014344262295082
"01","Kummerfeld",6.5,2097,1046,1051,323,"25495",9.791035,53.691612,"01056032",2011,0,37,3,0.0176442536957558
"01","Prisdorf",5.23,2234,1094,1140,427,"25497",9.761607,53.678151,"01056040",2011,0,35,2,0.0156669650850492
"01","Tangstedt",12.52,2235,1120,1115,179,"25499",9.849698,53.679247,"01056047",2011,0,33,3,0.0147651006711409
"01","Bönebüttel",20.4,2058,990,1068,101,"24620",10.059299,54.079505,"01057008",2011,0,39,2,0.0189504373177843
"01","Plön, Stadt",36.73,12795,8351,4444,348,"24306",10.416369,54.158288,"01057057",2011,0,426,45,0.0332942555685815
"01","Preetz, Stadt",14.4,15782,7492,8290,1096,"24211",10.280511,54.231866,"01057062",2011,0,648,49,0.0410594347991383
"01","Schwentinental, Stadt",17.82,13511,6477,7034,758,"24223",10.232251,54.292024,"01057091",2011,0,285,25,0.0210939234697654
"01","Behrensdorf (Ostsee)",20.85,614,303,311,29,"24321",10.603735,54.346515,"01057004",2011,0,12,0,0.0195439739413681
"01","Blekendorf",38.34,1746,860,886,46,"24327",10.650894,54.276459,"01057007",2011,0,64,1,0.0366552119129439
"01","Dannau",9.12,650,317,333,71,"24329",10.541131,54.240905,"01057013",2011,0,16,0,0.0246153846153846
"01","Giekau",32.8,1093,542,551,33,"24321",10.506158,54.31744,"01057021",2011,0,34,2,0.0311070448307411
"01","Helmstorf",12.73,331,169,162,26,"24321",10.593477,54.286644,"01057026",2011,0,4,0,0.0120845921450151
"01","Högsdorf",10.92,418,212,206,38,"24327",10.615055,54.251993,"01057027",2011,0,15,0,0.0358851674641148
"01","Hohenfelde",10.54,1073,580,493,102,"24257",10.496401,54.370898,"01057029",2011,0,41,0,0.038210624417521
"01","Hohwacht (Ostsee)",8.78,871,428,443,99,"24321",10.67371,54.320921,"01057030",2011,0,19,0,0.0218140068886338
"01","Kirchnüchel",10.09,170,95,75,17,"23714",10.680134,54.204109,"01057034",2011,0,9,0,0.0529411764705882
"01","Klamp",9.72,747,378,369,77,"24321",10.534123,54.296416,"01057035",2011,0,33,2,0.0441767068273092
"01","Kletkamp",11.52,125,61,64,11,"24327",10.638093,54.249088,"01057038",2011,0,5,0,0.04
"01","Lütjenburg, Stadt",6.15,5326,2569,2757,866,"24321",10.592237,54.294852,"01057048",2011,0,288,14,0.0540743522343222
"01","Panker",22.76,1520,743,777,67,"24321",10.573094,54.330348,"01057055",2011,0,37,1,0.0243421052631579
"01","Schwartbuck",13.15,811,394,417,62,"24257",10.478063,54.358264,"01057076",2011,0,34,1,0.0419235511713933
"01","Tröndel",7.58,411,209,202,54,"24321",10.514075,54.342355,"01057082",2011,0,6,0,0.0145985401459854
"01","Ascheberg (Holstein)",20.93,3163,1513,1650,151,"24326",10.34287,54.150044,"01057001",2011,0,91,4,0.0287701549162188
"01","Bösdorf",21.1,1454,737,717,69,"24306",10.490761,54.14153,"01057009",2011,0,33,2,0.0226960110041265
"01","Dersau",7.51,902,441,461,120,"24326",10.335939,54.118055,"01057015",2011,0,25,0,0.0277161862527716
"01","Dörnick",4.3,271,125,146,63,"24326",10.360374,54.163391,"01057017",2011,0,5,0,0.018450184501845
"01","Grebin",24.14,945,464,481,39,"24329",10.494272,54.195932,"01057022",2011,0,22,0,0.0232804232804233
"01","Kalübbe",11.8,559,286,273,47,"24326",10.283107,54.118145,"01057032",2011,0,22,0,0.0393559928443649
"01","Lebrade",18.59,579,286,293,31,"24306",10.422164,54.216651,"01057045",2011,0,10,0,0.0172711571675302
"01","Nehmten",22.04,275,138,137,12,"24326",10.393262,54.094848,"01057053",2011,0,10,0,0.0363636363636364
"01","Rantzau",16.91,316,162,154,19,"24321",10.50736,54.253869,"01057065",2011,0,12,0,0.0379746835443038
"01","Rathjensdorf",11.79,526,265,261,45,"24306",10.427747,54.185701,"01057067",2011,0,10,0,0.0190114068441065
"01","Wittmoldt",5.71,182,86,96,32,"24306",10.349132,54.174882,"01057089",2011,0,1,0,0.00549450549450549
"01","Barmissen",5.15,174,79,95,34,"24245",10.175383,54.204995,"01057002",2011,0,4,0,0.0229885057471264
"01","Boksee",5.53,467,235,232,84,"24220",10.127707,54.242981,"01057010",2011,0,12,0,0.0256959314775161
"01","Bothkamp",13.85,288,138,150,21,"24250",10.134422,54.203356,"01057011",2011,0,6,0,0.0208333333333333
"01","Großbarkau",2.93,179,90,89,61,"24245",10.169008,54.225362,"01057023",2011,0,6,0,0.0335195530726257
"01","Honigsee",11.27,460,218,242,41,"24211",10.187224,54.228283,"01057031",2011,0,9,0,0.0195652173913043
"01","Kirchbarkau",2.16,722,338,384,334,"24245",10.142365,54.211514,"01057033",2011,0,7,0,0.00969529085872576
"01","Klein Barkau",4.19,246,117,129,59,"24245",10.135269,54.222719,"01057037",2011,0,4,0,0.016260162601626
"01","Kühren",16.81,681,346,335,41,"24211",10.258367,54.198375,"01057042",2011,0,16,0,0.0234948604992658
"01","Lehmkuhlen",31.26,1459,744,715,47,"24211",10.360708,54.226973,"01057046",2011,0,33,1,0.0226182316655243
"01","Löptin",9.08,314,152,162,35,"24250",10.215743,54.175216,"01057047",2011,0,9,2,0.0286624203821656
"01","Nettelsee",6.47,421,203,218,65,"24250",10.189086,54.174111,"01057054",2011,0,8,0,0.0190023752969121
"01","Pohnsdorf",24.62,471,234,237,19,"24211",10.249321,54.239638,"01057058",2011,0,10,0,0.0212314225053079
"01","Postfeld",8.33,457,225,232,55,"24211",10.216409,54.211308,"01057059",2011,0,8,0,0.0175054704595186
"01","Rastorf",20.01,862,427,435,43,"24211",10.289064,54.272602,"01057066",2011,0,23,1,0.0266821345707657
"01","Schellhorn",10.54,1604,760,844,152,"24211",10.299476,54.227596,"01057070",2011,0,31,0,0.0193266832917706
"01","Wahlstorf",14.83,500,238,262,34,"24211",10.294715,54.178082,"01057084",2011,0,6,0,0.012
"01","Warnau",3.98,355,180,175,89,"24250",10.160154,54.18791,"01057086",2011,0,9,0,0.0253521126760563
"01","Barsbek",8.73,600,315,285,69,"24217",10.320134,54.404132,"01057003",2011,0,11,0,0.0183333333333333
"01","Bendfeld",4.41,222,101,121,50,"24217",10.419437,54.364156,"01057006",2011,0,6,0,0.027027027027027
"01","Brodersdorf",3.63,419,200,219,115,"24235",10.25033,54.38541,"01057012",2011,0,9,0,0.0214797136038186
"01","Fahren",3.6,144,73,71,40,"24253",10.338129,54.349551,"01057018",2011,0,5,2,0.0347222222222222
"01","Fiefbergen",5.8,571,293,278,98,"24217",10.342769,54.379311,"01057020",2011,0,15,0,0.0262697022767075
"01","Höhndorf",5.63,399,195,204,71,"24217",10.370674,54.372618,"01057028",2011,0,12,1,0.0300751879699248
"01","Köhn",13.16,835,426,409,63,"24257",10.455111,54.34444,"01057039",2011,0,15,1,0.0179640718562874
"01","Krokau",4.45,477,234,243,107,"24217",10.341654,54.402455,"01057040",2011,0,16,0,0.0335429769392034
"01","Krummbek",5.48,403,214,189,74,"24217",10.400709,54.37814,"01057041",2011,0,11,0,0.0272952853598015
"01","Laboe",5.23,5192,2539,2653,993,"24235",10.224322,54.40403,"01057043",2011,0,160,11,0.0308166409861325
"01","Lutterbek",3.23,364,190,174,113,"24235",10.276356,54.391582,"01057049",2011,0,8,0,0.021978021978022
"01","Passade",4.32,347,172,175,80,"24253",10.316785,54.366581,"01057056",2011,0,10,0,0.0288184438040346
"01","Prasdorf",4.77,465,234,231,97,"24253",10.296368,54.379182,"01057060",2011,0,9,0,0.0193548387096774
"01","Probsteierhagen",14.95,2132,1060,1072,143,"24253",10.288376,54.362613,"01057063",2011,0,57,2,0.0267354596622889
"01","Schönberg (Holstein)",11.64,6677,3246,3431,574,"24217",10.372476,54.39239,"01057073",2011,0,237,12,0.0354949827766961
"01","Stakendorf",7.97,451,218,233,57,"24217",10.422791,54.388444,"01057078",2011,0,6,0,0.0133037694013304
"01","Stein",3.81,816,398,418,214,"24235",10.269062,54.414678,"01057079",2011,0,22,0,0.0269607843137255
"01","Stoltenberg",7.78,310,144,166,40,"24256",10.346507,54.344758,"01057081",2011,0,5,0,0.0161290322580645
"01","Wendtorf",5.12,1098,557,541,214,"24235",10.290175,54.409759,"01057087",2011,0,26,0,0.0236794171220401
"01","Wisch",9.18,738,371,367,80,"24217",10.344244,54.411032,"01057088",2011,0,16,0,0.021680216802168
"01","Dobersdorf",21.91,1133,560,573,52,"24232",10.281513,54.31849,"01057016",2011,0,24,0,0.0211827007943513
"01","Lammershagen",25.97,270,141,129,10,"24238",10.443922,54.274509,"01057044",2011,0,7,0,0.0259259259259259
"01","Martensrade",19.53,963,483,480,49,"24238",10.392527,54.279611,"01057050",2011,0,22,1,0.0228452751817238
"01","Mucheln",14.28,566,287,279,40,"24238",10.442686,54.246421,"01057052",2011,0,17,0,0.0300353356890459
"01","Schlesen",7.99,518,235,283,65,"24256",10.328604,54.321544,"01057072",2011,0,18,0,0.0347490347490347
"01","Selent",4.33,1327,648,679,306,"24238",10.425867,54.290473,"01057077",2011,0,49,2,0.0369253956292389
"01","Fargau-Pratjau",23.53,768,394,374,33,"24256",10.396263,54.327552,"01057090",2011,0,17,0,0.0221354166666667
"01","Heikendorf",14.72,8234,3842,4392,559,"24226",10.207126,54.371302,"01057025",2011,0,156,6,0.0189458343453971
"01","Mönkeberg",2.78,3791,1789,2002,1364,"24226",10.187104,54.348117,"01057051",2011,0,69,5,0.0182010023740438
"01","Schönkirchen",15.95,6229,3018,3211,391,"24226",10.223695,54.336531,"01057074",2011,0,171,16,0.0274522395248033
"01","Belau",14.89,352,173,179,24,"24601",10.260123,54.097438,"01057005",2011,0,5,0,0.0142045454545455
"01","Großharrie",13.16,545,280,265,41,"24625",10.049861,54.119086,"01057024",2011,0,13,0,0.0238532110091743
"01","Rendswühren",19.75,789,385,404,40,"24619",10.17974,54.074276,"01057068",2011,0,16,0,0.0202788339670469
"01","Ruhwinkel",13.13,1022,511,511,78,"24601",10.221822,54.094216,"01057069",2011,0,26,1,0.025440313111546
"01","Schillsdorf",26.5,891,445,446,34,"24637",10.123505,54.116824,"01057071",2011,0,26,0,0.0291806958473625
"01","Stolpe",23.21,1320,657,663,57,"24601",10.22247,54.129,"01057080",2011,0,33,1,0.025
"01","Tasdorf",5.1,356,176,180,70,"24536",10.031296,54.095659,"01057083",2011,0,5,0,0.0140449438202247
"01","Wankendorf",13.34,2815,1354,1461,211,"24601",10.208037,54.112811,"01057085",2011,0,122,6,0.0433392539964476
"01","Altenholz",19.03,9950,4816,5134,523,"24161",10.120656,54.402998,"01058005",2011,0,203,17,0.0204020100502513
"01","Büdelsdorf, Stadt",6.48,10120,4894,5226,1562,"24782",9.677816,54.315687,"01058034",2011,0,290,19,0.0286561264822134
"01","Eckernförde, Stadt",18.39,22442,10980,11462,1220,"24340",9.837036,54.472791,"01058043",2011,0,902,60,0.0401924962124588
"01","Hohenwestedt",18.18,4952,2359,2593,272,"24594",9.651582,54.090893,"01058077",2011,0,164,5,0.0331179321486268
"01","Kronshagen",5.35,12134,5663,6471,2268,"24119",10.076635,54.332198,"01058092",2011,0,262,37,0.0215922202076809
"01","Rendsburg, Stadt",23.73,28077,13673,14404,1183,"24768",9.663205,54.306494,"01058135",2011,0,1592,209,0.0567012145172205
"01","Wasbek",23.49,2197,1093,1104,94,"24647",9.895541,54.071419,"01058169",2011,0,55,2,0.025034137460173
"01","Achterwehr",15.65,920,455,465,59,"24239",9.96576,54.313378,"01058001",2011,0,12,0,0.0130434782608696
"01","Bredenbek",12.43,1375,663,712,111,"24796",9.871054,54.324945,"01058028",2011,0,22,1,0.016
"01","Felde",13.87,2130,1110,1020,154,"24242",9.935308,54.3016,"01058050",2011,0,35,4,0.0164319248826291
"01","Krummwisch",13.91,696,375,321,50,"24796",9.897593,54.335159,"01058093",2011,0,11,1,0.0158045977011494
"01","Melsdorf",5.88,1744,869,875,297,"24109",10.029816,54.317289,"01058104",2011,0,29,0,0.0166284403669725
"01","Ottendorf",3.55,845,396,449,238,"24107",10.044532,54.340275,"01058126",2011,0,17,1,0.0201183431952663
"01","Quarnbek",16.18,1788,852,936,111,"24107",9.983912,54.330011,"01058130",2011,0,27,0,0.0151006711409396
"01","Westensee",36.91,1559,751,808,42,"24259",9.894918,54.27361,"01058171",2011,0,28,2,0.0179602309172547
"01","Arpsdorf",12.1,272,150,122,22,"24634",9.85904,54.038643,"01058007",2011,0,7,0,0.0257352941176471
"01","Aukrug",49.91,3635,1787,1848,73,"24613",9.792414,54.077067,"01058009",2011,0,81,1,0.022283356258597
"01","Ehndorf",14.68,661,346,315,45,"24647",9.893993,54.053269,"01058044",2011,0,10,0,0.0151285930408472
"01","Padenstedt",14.6,1521,753,768,104,"24634",9.917284,54.048943,"01058128",2011,0,35,2,0.0230111768573307
"01","Dänischenhagen",15.71,3620,1794,1826,230,"24229",10.12891,54.425449,"01058037",2011,0,59,0,0.0162983425414365
"01","Noer",13.9,823,405,418,59,"24214",10.005398,54.461312,"01058116",2011,0,20,0,0.0243013365735115
"01","Schwedeneck",28.54,2936,1483,1453,103,"24229",10.069038,54.458475,"01058150",2011,0,51,3,0.0173705722070845
"01","Strande",13.73,1494,707,787,109,"24229",10.170978,54.440908,"01058157",2011,0,23,0,0.0153949129852744
"01","Felm",15.33,1072,523,549,70,"24244",10.061495,54.409602,"01058051",2011,0,14,0,0.0130597014925373
"01","Gettorf",9.35,6820,3377,3443,729,"24214",9.973683,54.407578,"01058058",2011,0,185,3,0.0271260997067449
"01","Lindau",25.18,1251,655,596,50,"24214",9.904582,54.385149,"01058096",2011,0,24,2,0.0191846522781775
"01","Neudorf-Bornstein",14.17,1080,526,554,76,"24214",9.934568,54.425598,"01058110",2011,0,20,0,0.0185185185185185
"01","Neuwittenbek",13.12,1220,626,594,93,"24214",10.028294,54.367896,"01058112",2011,0,17,2,0.0139344262295082
"01","Osdorf",19.88,2376,1184,1192,120,"24251",10.015653,54.427956,"01058121",2011,0,44,0,0.0185185185185185
"01","Schinkel",10.21,1017,524,493,100,"24214",9.954902,54.355837,"01058142",2011,0,12,0,0.0117994100294985
"01","Tüttendorf",17.74,1142,583,559,64,"24214",9.993457,54.392145,"01058165",2011,0,17,0,0.0148861646234676
"01","Böhnhusen",5.29,336,166,170,64,"24220",10.06821,54.221123,"01058019",2011,0,8,0,0.0238095238095238
"01","Flintbek",17.57,7335,3568,3767,417,"24220",10.064147,54.239562,"01058053",2011,0,159,5,0.0216768916155419
"01","Schönhorst",3.55,318,156,162,90,"24220",10.10415,54.225471,"01058145",2011,0,4,0,0.0125786163522013
"01","Techelsdorf",4.35,149,78,71,34,"24220",10.047182,54.214206,"01058160",2011,0,7,0,0.0469798657718121
"01","Alt Duvenstedt",20.42,1856,927,929,91,"24791",9.645212,54.359628,"01058003",2011,0,46,1,0.0247844827586207
"01","Fockbek",26.65,6213,2934,3279,233,"24787",9.601368,54.304424,"01058054",2011,0,102,4,0.0164171897633993
"01","Nübbel",14.02,1578,834,744,113,"24809",9.62187,54.272619,"01058118",2011,0,27,0,0.0171102661596958
"01","Rickert",5.52,1081,523,558,196,"24782",9.669084,54.333615,"01058136",2011,0,23,0,0.0212765957446809
"01","Beldorf",11.96,294,145,149,25,"25557",9.352138,54.133278,"01058013",2011,0,4,0,0.0136054421768707
"01","Bendorf",20.47,439,217,222,21,"25557",9.382895,54.087165,"01058014",2011,0,16,0,0.0364464692482916
"01","Bornholt",10.94,182,95,87,17,"25557",9.335478,54.101697,"01058025",2011,0,6,0,0.032967032967033
"01","Gokels",10.64,614,298,316,58,"25557",9.468743,54.112001,"01058061",2011,0,22,0,0.0358306188925081
"01","Hanerau-Hademarschen",14.63,3000,1467,1533,205,"25557",9.412576,54.127369,"01058072",2011,0,130,6,0.0433333333333333
"01","Lütjenwestedt",22.32,592,298,294,27,"25585",9.490805,54.140616,"01058100",2011,0,19,0,0.0320945945945946
"01","Oldenbüttel",7.97,286,157,129,36,"25557",9.452473,54.168951,"01058119",2011,0,8,0,0.027972027972028
"01","Seefeld",6.77,363,170,193,54,"25557",9.492934,54.101159,"01058151",2011,0,18,0,0.0495867768595041
"01","Steenfeld",11.48,392,211,181,34,"25557",9.379822,54.142654,"01058156",2011,0,10,0,0.0255102040816327
"01","Tackesdorf",7.65,85,42,43,11,"25585",9.481918,54.17566,"01058158",2011,0,1,0,0.0117647058823529
"01","Thaden",11.98,267,138,129,22,"25557",9.422921,54.102552,"01058161",2011,0,6,0,0.0224719101123595
"01","Beringstedt",14.29,725,388,337,51,"25575",9.53498,54.110562,"01058015",2011,0,28,0,0.0386206896551724
"01","Grauel",5.73,253,121,132,44,"24594",9.674146,54.070198,"01058062",2011,0,4,0,0.0158102766798419
"01","Heinkenborstel",7.55,139,68,71,18,"24594",9.75104,54.130803,"01058074",2011,0,5,0,0.0359712230215827
"01","Jahrsdorf",8.77,267,134,133,30,"24594",9.631936,54.065681,"01058085",2011,0,5,0,0.0187265917602996
"01","Meezen",8.76,372,185,187,42,"24594",9.709777,54.051629,"01058103",2011,0,8,0,0.021505376344086
"01","Mörel",8.69,264,144,120,30,"24594",9.728527,54.113809,"01058106",2011,0,4,1,0.0151515151515152
"01","Nienborstel",16.37,599,318,281,37,"24819",9.61947,54.141721,"01058113",2011,0,11,0,0.0183639398998331
"01","Nindorf",14.04,655,325,330,47,"24594",9.699683,54.131914,"01058115",2011,0,14,0,0.0213740458015267
"01","Osterstedt",10.95,637,316,321,58,"25590",9.574605,54.11175,"01058125",2011,0,20,0,0.0313971742543171
"01","Rade b. Hohenwestedt",3.21,88,44,44,27,"24594",9.721126,54.101216,"01058131",2011,0,2,0,0.0227272727272727
"01","Remmels",9.49,428,212,216,45,"24594",9.651483,54.11772,"01058134",2011,0,10,0,0.0233644859813084
"01","Tappendorf",6.69,345,180,165,52,"24594",9.693517,54.104212,"01058159",2011,0,9,0,0.0260869565217391
"01","Todenbüttel",11.78,1063,545,518,90,"24819",9.55573,54.129824,"01058164",2011,0,24,1,0.0225776105362183
"01","Wapelfeld",8.11,321,154,167,40,"24594",9.604362,54.084735,"01058167",2011,0,14,0,0.043613707165109
"01","Bargstall",4.62,147,74,73,32,"24806",9.46557,54.260474,"01058010",2011,0,3,0,0.0204081632653061
"01","Breiholz",18.49,1393,702,691,75,"24797",9.521979,54.206137,"01058029",2011,0,19,0,0.0136396267049533
"01","Christiansholm",8.42,229,120,109,27,"24799",9.405402,54.320498,"01058036",2011,0,11,0,0.0480349344978166
"01","Elsdorf-Westermühlen",27.48,1678,824,854,61,"24800",9.517318,54.260728,"01058047",2011,0,46,1,0.0274135876042908
"01","Friedrichsgraben",5.39,60,37,23,11,"24799",9.419087,54.272305,"01058055",2011,0,2,0,0.0333333333333333
"01","Friedrichsholm",7.13,415,212,203,58,"24799",9.427266,54.303023,"01058056",2011,0,10,0,0.0240963855421687
"01","Hamdorf",30.59,1257,641,616,41,"24805",9.518657,54.225554,"01058070",2011,0,21,0,0.0167064439140811
"01","Hohn",31.94,2375,1192,1183,74,"24806",9.503415,54.29872,"01058078",2011,0,65,1,0.0273684210526316
"01","Königshügel",6.26,166,80,86,27,"24799",9.474273,54.33488,"01058089",2011,0,4,0,0.0240963855421687
"01","Lohe-Föhrden",16.03,613,388,225,38,"24806",9.522077,54.33615,"01058097",2011,0,7,0,0.0114192495921697
"01","Prinzenmoor",5.6,193,102,91,34,"24805",9.454145,54.217426,"01058129",2011,0,3,0,0.0155440414507772
"01","Sophienhamm",5.91,344,163,181,58,"24806",9.461024,54.270234,"01058154",2011,0,10,0,0.0290697674418605
"01","Brinjahe",4.66,124,63,61,27,"24816",9.632101,54.168528,"01058031",2011,0,2,0,0.0161290322580645
"01","Embühren",7.45,229,105,124,31,"24819",9.591436,54.170602,"01058048",2011,0,7,0,0.0305676855895196
"01","Haale",13.03,514,265,249,39,"24819",9.548925,54.174256,"01058068",2011,0,7,0,0.0136186770428016
"01","Hamweddel",9.67,478,243,235,49,"24816",9.618872,54.190501,"01058071",2011,0,10,0,0.0209205020920502
"01","Hörsten",8.82,56,28,28,6,"24797",9.578792,54.226539,"01058075",2011,0,0,0,0
"01","Jevenstedt",45.55,3225,1593,1632,71,"24808",9.668848,54.234604,"01058086",2011,0,87,5,0.0269767441860465
"01","Luhnstedt",15.34,424,199,225,28,"24816",9.698824,54.166637,"01058101",2011,0,13,1,0.0306603773584906
"01","Schülp b. Rendsburg",10.71,1094,527,567,102,"24813",9.629243,54.259318,"01058148",2011,0,18,0,0.0164533820840951
"01","Stafstedt",11.83,332,174,158,28,"24816",9.66287,54.170704,"01058155",2011,0,8,0,0.0240963855421687
"01","Westerrönfeld",7.78,4940,2414,2526,635,"24784",9.646005,54.280365,"01058172",2011,0,119,6,0.0240890688259109
"01","Blumenthal",7.8,656,336,320,84,"24241",10.003257,54.226064,"01058018",2011,0,8,0,0.0121951219512195
"01","Mielkendorf",7.78,1327,660,667,171,"24247",10.040778,54.284565,"01058105",2011,0,23,2,0.0173323285606631
"01","Molfsee",7.17,4790,2296,2494,668,"24113",10.064933,54.263397,"01058107",2011,0,71,7,0.0148225469728601
"01","Rodenbek",7.09,478,222,256,67,"24247",10.019719,54.276656,"01058138",2011,0,7,0,0.0146443514644351
"01","Rumohr",8.6,753,382,371,88,"24254",10.023403,54.255793,"01058139",2011,0,19,2,0.0252324037184595
"01","Schierensee",9.18,392,188,204,43,"24241",9.983721,54.25639,"01058141",2011,0,10,0,0.0255102040816327
"01","Bargstedt",25.32,735,365,370,29,"24793",9.769023,54.162432,"01058011",2011,0,16,0,0.0217687074829932
"01","Bokel",15.27,670,338,332,44,"24802",9.794093,54.215588,"01058021",2011,0,23,1,0.0343283582089552
"01","Borgdorf-Seedorf",6.63,406,195,211,61,"24589",9.89036,54.175681,"01058023",2011,0,6,0,0.0147783251231527
"01","Brammer",13.66,399,196,203,29,"24793",9.765228,54.200191,"01058027",2011,0,11,0,0.0275689223057644
"01","Dätgen",10.61,574,294,280,54,"24589",9.934283,54.181105,"01058038",2011,0,11,0,0.0191637630662021
"01","Eisendorf",5.49,304,155,149,55,"24589",9.868778,54.192224,"01058045",2011,0,8,0,0.0263157894736842
"01","Ellerdorf",10.2,511,265,246,50,"24589",9.838495,54.194753,"01058046",2011,0,8,0,0.0156555772994129
"01","Emkendorf",38.93,1418,733,685,36,"24802",9.85317,54.262329,"01058049",2011,0,31,0,0.0218617771509168
"01","Gnutz",22.93,1166,599,567,51,"24622",9.823515,54.135329,"01058059",2011,0,29,1,0.0248713550600343
"01","Groß Vollstedt",9.02,968,489,479,107,"24802",9.867711,54.234712,"01058065",2011,0,23,1,0.0237603305785124
"01","Krogaspe",11.82,443,241,202,37,"24644",9.929381,54.131572,"01058091",2011,0,12,0,0.0270880361173815
"01","Langwedel",24.22,1407,705,702,58,"24631",9.931599,54.211724,"01058094",2011,0,36,1,0.0255863539445629
"01","Nortorf, Stadt",12.77,6186,3042,3144,484,"24589",9.855951,54.167229,"01058117",2011,0,214,15,0.0345942450695118
"01","Oldenhütten",4.33,146,70,76,34,"24793",9.740451,54.158095,"01058120",2011,0,4,0,0.0273972602739726
"01","Schülp b. Nortorf",9.86,837,414,423,85,"24589",9.885617,54.163642,"01058147",2011,0,10,2,0.01194743130227
"01","Timmaspe",15.36,1127,542,585,73,"24644",9.890943,54.140848,"01058163",2011,0,23,0,0.0204081632653061
"01","Warder",8.71,614,289,325,70,"24646",9.88671,54.213803,"01058168",2011,0,10,0,0.0162866449511401
"01","Bovenau",26.2,1067,539,528,41,"24796",9.829982,54.330579,"01058026",2011,0,26,0,0.0243673851921275
"01","Haßmoor",10.28,291,157,134,28,"24790",9.820924,54.292252,"01058073",2011,0,5,0,0.0171821305841924
"01","Ostenfeld (Rendsburg)",7.27,540,285,255,74,"24790",9.785112,54.31452,"01058122",2011,0,13,1,0.0240740740740741
"01","Osterrönfeld",17.89,5112,2559,2553,286,"24783",9.696875,54.291916,"01058124",2011,0,94,5,0.0183881064162754
"01","Rade b. Rendsburg",6.52,228,107,121,35,"24790",9.745223,54.331428,"01058132",2011,0,7,0,0.0307017543859649
"01","Schacht-Audorf",6.52,4450,2163,2287,683,"24783",9.718033,54.313528,"01058140",2011,0,130,4,0.0292134831460674
"01","Schülldorf",12.99,682,342,340,53,"24790",9.729265,54.300344,"01058146",2011,0,16,0,0.0234604105571848
"01","Bissee",9.27,176,85,91,19,"24582",10.110472,54.190702,"01058016",2011,0,4,0,0.0227272727272727
"01","Bordesholm",10.16,7323,3573,3750,721,"24582",10.02605,54.175531,"01058022",2011,0,196,9,0.0267649870271747
"01","Brügge",7.86,1028,525,503,131,"24582",10.071066,54.174355,"01058033",2011,0,26,0,0.0252918287937743
"01","Grevenkrug",4.16,240,148,92,58,"24241",10.01044,54.212981,"01058063",2011,0,9,0,0.0375
"01","Groß Buchwald",8.95,352,174,178,39,"24582",10.085962,54.162947,"01058064",2011,0,9,1,0.0255681818181818
"01","Hoffeld",6.62,170,80,90,26,"24582",9.980609,54.188849,"01058076",2011,0,2,0,0.0117647058823529
"01","Loop",8.34,162,78,84,19,"24644",9.949174,54.147997,"01058098",2011,0,5,1,0.0308641975308642
"01","Mühbrook",5.3,534,263,271,101,"24582",10.009403,54.157354,"01058108",2011,0,8,0,0.0149812734082397
"01","Negenharrie",12.43,346,167,179,28,"24625",10.075272,54.143594,"01058109",2011,0,9,0,0.0260115606936416
"01","Reesdorf",3.07,152,76,76,50,"24241",10.06034,54.190474,"01058133",2011,0,1,0,0.00657894736842105
"01","Schmalstede",4.81,272,149,123,57,"24241",10.030205,54.193229,"01058143",2011,0,4,0,0.0147058823529412
"01","Schönbek",6.11,167,84,83,27,"24582",9.975522,54.162731,"01058144",2011,0,5,0,0.029940119760479
"01","Sören",6.51,197,89,108,30,"24241",9.998884,54.202744,"01058153",2011,0,3,0,0.0152284263959391
"01","Wattenbek",6.05,2929,1422,1507,484,"24582",10.054588,54.170679,"01058170",2011,0,56,3,0.0191191532946398
"01","Ascheffel",10.39,970,498,472,93,"24358",9.698229,54.430871,"01058008",2011,0,33,0,0.034020618556701
"01","Borgstedt",9.15,1315,663,652,144,"24794",9.710012,54.332989,"01058024",2011,0,21,3,0.0159695817490494
"01","Brekendorf",20.47,996,520,476,49,"24811",9.630167,54.420822,"01058030",2011,0,23,1,0.0230923694779116
"01","Bünsdorf",13.24,628,319,309,47,"24794",9.74257,54.369536,"01058035",2011,0,11,0,0.017515923566879
"01","Damendorf",7.48,412,204,208,55,"24361",9.735272,54.423532,"01058039",2011,0,13,0,0.0315533980582524
"01","Groß Wittensee",23.6,1117,573,544,47,"24361",9.769945,54.404606,"01058066",2011,0,24,0,0.0214861235452104
"01","Haby",5.79,562,289,273,97,"24361",9.822077,54.395389,"01058069",2011,0,12,0,0.0213523131672598
"01","Holtsee",21.71,1334,646,688,61,"24363",9.854754,54.39873,"01058080",2011,0,24,0,0.0179910044977511
"01","Holzbunge",5.19,335,165,170,65,"24361",9.705374,54.377746,"01058081",2011,0,9,1,0.026865671641791
"01","Hütten",6.91,209,105,104,30,"24358",9.717518,54.437115,"01058083",2011,0,7,0,0.0334928229665072
"01","Klein Wittensee",4.3,194,90,104,45,"24361",9.733109,54.39039,"01058088",2011,0,3,0,0.0154639175257732
"01","Neu Duvenstedt",5.71,132,68,64,23,"24794",9.698384,54.355902,"01058111",2011,0,2,0,0.0151515151515152
"01","Osterby",9.84,923,466,457,94,"24367",9.753565,54.453494,"01058123",2011,0,17,1,0.0184182015167931
"01","Owschlag",39.32,3624,1843,1781,92,"24811",9.598839,54.391386,"01058127",2011,0,110,3,0.0303532008830022
"01","Sehestedt",15.25,842,411,431,55,"24814",9.818374,54.366,"01058152",2011,0,11,0,0.0130641330166271
"01","Ahlefeld-Bistensee",10.04,483,233,250,48,"24358",9.691855,54.403924,"01058175",2011,0,17,0,0.0351966873706004
"01","Altenhof",12.13,301,166,135,25,"24340",9.875233,54.434745,"01058004",2011,0,5,0,0.0166112956810631
"01","Barkelsby",17.87,1436,700,736,80,"24360",9.839569,54.501517,"01058012",2011,0,36,1,0.0250696378830084
"01","Brodersby",9.79,748,382,366,76,"24398",9.980118,54.634636,"01058032",2011,0,8,1,0.0106951871657754
"01","Damp",13.81,1550,752,798,112,"24351",9.983431,54.578299,"01058040",2011,0,24,1,0.0154838709677419
"01","Dörphof",15.02,720,357,363,48,"24398",9.971893,54.614129,"01058042",2011,0,22,1,0.0305555555555556
"01","Fleckeby",12.31,1889,891,998,153,"24357",9.696064,54.482273,"01058052",2011,0,62,2,0.0328215987294865
"01","Gammelby",8.3,562,282,280,68,"24340",9.793237,54.500342,"01058057",2011,0,14,0,0.0249110320284698
"01","Güby",11.89,856,450,406,72,"24357",9.666683,54.485952,"01058067",2011,0,6,0,0.00700934579439252
"01","Holzdorf",17.35,878,453,425,51,"24364",9.896959,54.554372,"01058082",2011,0,29,0,0.0330296127562642
"01","Hummelfeld",7.98,287,131,156,36,"24357",9.718247,54.462168,"01058084",2011,0,12,0,0.0418118466898955
"01","Karby",2.09,531,249,282,254,"24398",9.975277,54.623145,"01058087",2011,0,12,0,0.0225988700564972
"01","Kosel",30,1322,631,691,44,"24354",9.755144,54.505375,"01058090",2011,0,35,2,0.0264750378214826
"01","Loose",13.11,764,387,377,58,"24366",9.889147,54.519595,"01058099",2011,0,23,0,0.0301047120418848
"01","Goosefeld",9.81,772,393,379,79,"24340",9.815036,54.429737,"01058102",2011,0,13,0,0.016839378238342
"01","Rieseby",38.85,2452,1214,1238,63,"24354",9.812995,54.541709,"01058137",2011,0,69,1,0.0281402936378467
"01","Thumby",27.39,454,220,234,17,"24351",9.910273,54.585573,"01058162",2011,0,14,0,0.0308370044052863
"01","Waabs",33.27,1413,686,727,42,"24369",9.983282,54.526747,"01058166",2011,0,35,1,0.0247699929228592
"01","Windeby",14.77,1068,525,543,72,"24340",9.796901,54.454793,"01058173",2011,0,32,0,0.0299625468164794
"01","Winnemark",9.58,524,255,269,55,"24398",9.922134,54.615886,"01058174",2011,0,6,0,0.0114503816793893
"01","Kappeln, Stadt",43.32,9628,4924,4704,222,"24376",9.931158,54.659144,"01059045",2011,0,552,41,0.0573327793934358
"01","Schleswig, Stadt",24.3,24133,11578,12555,993,"24837",9.566657,54.51494,"01059075",2011,0,1773,149,0.0734678655782538
"01","Glücksburg (Ostsee), Stadt",39.7,5864,2782,3082,148,"24960",9.550997,54.836857,"01059113",2011,0,229,16,0.0390518417462483
"01","Harrislee",18.92,11470,5610,5860,606,"24955",9.382917,54.804282,"01059120",2011,0,514,71,0.0448125544899738
"01","Handewitt",77.72,10867,5412,5455,140,"24983",9.324674,54.763847,"01059183",2011,0,299,14,0.0275144934204472
"01","Eggebek",16.68,2557,1363,1194,153,"24852",9.371773,54.619648,"01059107",2011,0,107,5,0.0418459131795072
"01","Janneby",14.49,441,213,228,30,"24992",9.300481,54.6256,"01059128",2011,0,22,1,0.0498866213151927
"01","Jerrishoe",16,963,454,509,60,"24963",9.3718,54.657214,"01059131",2011,0,24,2,0.0249221183800623
"01","Jörl",19.68,808,418,390,41,"24992",9.278087,54.61018,"01059132",2011,0,25,2,0.0309405940594059
"01","Langstedt",13.17,1050,510,540,80,"24852",9.385428,54.616816,"01059138",2011,0,33,1,0.0314285714285714
"01","Sollerup",12.98,485,243,242,37,"24852",9.320146,54.572956,"01059162",2011,0,17,2,0.0350515463917526
"01","Süderhackstedt",10.15,341,191,150,34,"24852",9.289497,54.592318,"01059169",2011,0,11,0,0.032258064516129
"01","Wanderup",28.64,2253,1148,1105,79,"24997",9.331463,54.68849,"01059174",2011,0,80,0,0.0355082112738571
"01","Borgwedel",9.96,725,338,387,73,"24857",9.666805,54.500271,"01059012",2011,0,14,0,0.0193103448275862
"01","Busdorf",5.35,2018,1013,1005,377,"24866",9.553155,54.493339,"01059018",2011,0,66,2,0.0327056491575818
"01","Dannewerk",16.65,1140,555,585,68,"24867",9.498015,54.479725,"01059019",2011,0,35,1,0.0307017543859649
"01","Fahrdorf",12,2472,1182,1290,206,"24857",9.599501,54.504972,"01059026",2011,0,47,2,0.0190129449838188
"01","Geltorf",8.08,397,182,215,49,"24884",9.612632,54.463184,"01059032",2011,0,13,0,0.0327455919395466
"01","Jagel",11.89,963,488,475,81,"24878",9.537498,54.457148,"01059043",2011,0,38,1,0.039460020768432
"01","Lottorf",5.78,232,107,125,40,"24878",9.57292,54.45024,"01059056",2011,0,6,0,0.0258620689655172
"01","Selk",10.07,857,428,429,85,"24884",9.568237,54.470747,"01059078",2011,0,25,0,0.029171528588098
"01","Tastrup",4.16,412,202,210,99,"24943",9.477121,54.765066,"01059101",2011,0,6,0,0.0145631067961165
"01","Ausacker",9.13,496,249,247,54,"24975",9.574897,54.7375,"01059103",2011,0,10,0,0.0201612903225806
"01","Großsolt",25.07,1834,903,931,73,"24991",9.513444,54.699351,"01059116",2011,0,55,0,0.0299890948745911
"01","Hürup",16.2,1158,562,596,71,"24975",9.529425,54.748128,"01059126",2011,0,22,0,0.0189982728842832
"01","Husby",19.31,2271,1136,1135,118,"24975",9.577321,54.765195,"01059127",2011,0,68,5,0.0299427564949362
"01","Maasbüll",7.71,706,353,353,92,"24975",9.522839,54.778196,"01059141",2011,0,15,0,0.0212464589235127
"01","Freienwill",15.3,1509,753,756,99,"24991",9.492435,54.728589,"01059182",2011,0,40,4,0.0265076209410205
"01","Arnis, Stadt",0.45,273,149,124,607,"24399",9.93084,54.631005,"01059002",2011,0,8,1,0.0293040293040293
"01","Grödersby",6.64,245,110,135,37,"24376",9.91842,54.637617,"01059034",2011,0,9,0,0.036734693877551
"01","Oersberg",7.09,338,166,172,48,"24407",9.843457,54.674355,"01059067",2011,0,14,0,0.0414201183431953
"01","Rabenkirchen-Faulück",14.21,634,336,298,45,"24407",9.862725,54.645176,"01059068",2011,0,27,1,0.0425867507886435
"01","Dollerup",13.08,1012,494,518,77,"24989",9.680759,54.776063,"01059106",2011,0,43,2,0.0424901185770751
"01","Grundhof",11.56,872,448,424,75,"24977",9.654546,54.773324,"01059118",2011,0,21,1,0.0240825688073395
"01","Langballig",15.42,1510,750,760,98,"24977",9.637033,54.799393,"01059137",2011,0,52,2,0.0344370860927152
"01","Munkbrarup",13.27,1088,555,533,82,"24960",9.561132,54.803199,"01059145",2011,0,24,1,0.0220588235294118
"01","Ringsberg",5.25,509,244,265,97,"24977",9.598331,54.807139,"01059157",2011,0,23,2,0.0451866404715128
"01","Wees",12.74,2253,1120,1133,177,"24999",9.522559,54.807217,"01059176",2011,0,53,3,0.0235241899689303
"01","Westerholz",14.74,763,356,407,52,"24977",9.668774,54.817328,"01059178",2011,0,18,1,0.0235910878112713
"01","Sieverstedt",31.01,1655,843,812,53,"24885",9.475636,54.643106,"01059159",2011,0,54,1,0.0326283987915408
"01","Tarp",16.36,5500,2870,2630,336,"24963",9.402835,54.664093,"01059171",2011,0,269,14,0.0489090909090909
"01","Oeversee",36.26,3300,1669,1631,91,"24988",9.433081,54.702848,"01059184",2011,0,92,5,0.0278787878787879
"01","Havetoftloit",14.86,943,461,482,63,"24875",9.558249,54.662066,"01059038",2011,0,27,0,0.0286320254506893
"01","Rüde",6.1,366,201,165,60,"24986",9.658789,54.680935,"01059069",2011,0,9,0,0.0245901639344262
"01","Satrup",23.99,3691,1768,1923,154,"24986",9.60375,54.692455,"01059071",2011,0,134,1,0.0363045245191005
"01","Schnarup-Thumby",10.72,578,304,274,54,"24891",9.649699,54.648513,"01059076",2011,0,22,0,0.0380622837370242
"01","Sörup",44.32,4157,2074,2083,94,"24966",9.668561,54.7179,"01059161",2011,0,182,3,0.0437815732499399
"01","Böxlund",4.4,108,58,50,25,"24994",9.179768,54.839788,"01059105",2011,0,4,0,0.037037037037037
"01","Großenwiehe",30.2,2828,1439,1389,94,"24969",9.252521,54.712879,"01059115",2011,0,88,5,0.0311173974540311
"01","Hörup",18.15,628,325,303,35,"24980",9.103758,54.740637,"01059123",2011,0,16,0,0.0254777070063694
"01","Holt",13.42,191,98,93,14,"24994",9.14723,54.810763,"01059124",2011,0,8,0,0.0418848167539267
"01","Jardelund",16.63,324,178,146,19,"24994",9.201125,54.825289,"01059129",2011,0,5,0,0.0154320987654321
"01","Medelby",9.75,878,443,435,90,"24994",9.172823,54.812747,"01059143",2011,0,35,0,0.0398633257403189
"01","Meyn",12.4,688,357,331,55,"24980",9.223618,54.75755,"01059144",2011,0,23,1,0.0334302325581395
"01","Nordhackstedt",12.47,475,245,230,38,"24980",9.167,54.7334,"01059149",2011,0,12,0,0.0252631578947368
"01","Osterby",12.35,339,166,173,27,"24994",9.210584,54.796882,"01059151",2011,0,6,0,0.0176991150442478
"01","Schafflund",19.09,2379,1166,1213,125,"24980",9.18428,54.759438,"01059158",2011,0,79,2,0.0332072299285414
"01","Wallsbüll",13.23,887,438,449,67,"24980",9.238029,54.774478,"01059173",2011,0,32,0,0.0360766629086809
"01","Weesby",21.44,485,244,241,23,"24994",9.152975,54.829731,"01059177",2011,0,12,0,0.0247422680412371
"01","Lindewitt",53.27,2110,1079,1031,40,"24969",9.196859,54.697923,"01059179",2011,0,68,0,0.0322274881516588
"01","Böel",13.66,733,373,360,54,"24401",9.721898,54.648025,"01059006",2011,0,34,0,0.0463847203274216
"01","Boren",18.48,746,376,370,40,"24392",9.819203,54.614325,"01059011",2011,0,16,0,0.0214477211796247
"01","Brebel",6.96,397,208,189,57,"24392",9.736843,54.634527,"01059014",2011,0,17,0,0.0428211586901763
"01","Dollrottfeld",4.99,269,150,119,54,"24392",9.808814,54.642685,"01059021",2011,0,11,0,0.0408921933085502
"01","Ekenis",8,207,103,104,26,"24392",9.851339,54.626557,"01059022",2011,0,4,0,0.0193236714975845
"01","Kiesby",3.66,192,95,97,52,"24392",9.820584,54.621773,"01059047",2011,0,4,2,0.0208333333333333
"01","Loit",6.69,259,135,124,39,"24888",9.701057,54.6121,"01059055",2011,0,13,0,0.0501930501930502
"01","Mohrkirch",14.42,992,517,475,69,"24405",9.706676,54.67755,"01059060",2011,0,40,0,0.0403225806451613
"01","Norderbrarup",3.98,622,302,320,156,"24392",9.768607,54.655394,"01059063",2011,0,27,0,0.0434083601286174
"01","Nottfeld",3.18,139,81,58,44,"24392",9.768634,54.618665,"01059065",2011,0,4,0,0.0287769784172662
"01","Rügge",6.01,239,123,116,40,"24405",9.761889,54.689353,"01059070",2011,0,4,0,0.0167364016736402
"01","Saustrup",8.14,207,108,99,25,"24392",9.772101,54.671982,"01059072",2011,0,2,0,0.00966183574879227
"01","Scheggerott",6.32,361,194,167,57,"24392",9.821294,54.667579,"01059074",2011,0,9,0,0.0249307479224377
"01","Steinfeld",8.73,736,354,382,84,"24888",9.739705,54.599879,"01059080",2011,0,21,1,0.0285326086956522
"01","Süderbrarup",8.1,3902,1859,2043,482,"24392",9.77543,54.635615,"01059083",2011,0,246,12,0.0630445925166581
"01","Ulsnis",19.81,674,341,333,34,"24897",9.745338,54.568046,"01059094",2011,0,15,0,0.0222551928783383
"01","Wagersrott",5.64,250,137,113,44,"24392",9.79451,54.66544,"01059095",2011,0,11,0,0.044
"01","Böklund",7.88,1409,688,721,179,"24860",9.583662,54.603486,"01059008",2011,0,65,3,0.0461320085166785
"01","Brodersby",10.36,483,240,243,47,"24864",9.714557,54.538182,"01059016",2011,0,14,0,0.0289855072463768
"01","Goltoft",3.09,235,125,110,76,"24864",9.72206,54.54752,"01059033",2011,0,4,0,0.0170212765957447
"01","Havetoft",14.53,881,422,459,61,"24873",9.516692,54.649265,"01059037",2011,0,27,0,0.0306469920544835
"01","Idstedt",13.35,847,409,438,63,"24879",9.511808,54.582201,"01059042",2011,0,22,0,0.025974025974026
"01","Klappholz",8.22,514,240,274,63,"24860",9.541113,54.619212,"01059049",2011,0,21,0,0.0408560311284047
"01","Neuberend",4.42,1126,557,569,255,"24879",9.525188,54.555267,"01059062",2011,0,28,0,0.024866785079929
"01","Schaalby",25,1633,804,829,65,"24882",9.63988,54.549079,"01059073",2011,0,49,1,0.030006123698714
"01","Stolk",14.54,810,400,410,56,"24890",9.541623,54.59857,"01059081",2011,0,26,0,0.0320987654320988
"01","Struxdorf",13.4,663,351,312,49,"24891",9.63854,54.632416,"01059082",2011,0,23,0,0.0346907993966818
"01","Süderfahrenstedt",9.15,492,239,253,54,"24890",9.584251,54.585385,"01059084",2011,0,14,0,0.0284552845528455
"01","Taarstedt",13.69,876,457,419,64,"24893",9.688715,54.567368,"01059086",2011,0,37,0,0.0422374429223744
"01","Tolk",10.44,1014,510,504,97,"24894",9.639282,54.578788,"01059090",2011,0,54,1,0.0532544378698225
"01","Uelsby",10.59,451,212,239,43,"24860",9.597064,54.631409,"01059093",2011,0,12,1,0.0266075388026608
"01","Twedt",12.52,499,242,257,40,"24894",9.676062,54.597883,"01059097",2011,0,18,1,0.0360721442885772
"01","Nübel",18.32,1380,736,644,75,"24881",9.583971,54.563866,"01059098",2011,0,31,0,0.022463768115942
"01","Ahneby",3.8,212,99,113,56,"24996",9.730964,54.70142,"01059102",2011,0,9,0,0.0424528301886792
"01","Esgrus",18.06,761,363,398,42,"24402",9.782168,54.723421,"01059109",2011,0,24,1,0.0315374507227332
"01","Gelting",20.02,1876,893,983,94,"24395",9.89717,54.746312,"01059112",2011,0,107,5,0.0570362473347548
"01","Hasselberg",11.3,880,468,412,78,"24376",9.977353,54.715122,"01059121",2011,0,38,1,0.0431818181818182
"01","Kronsgaard",5.92,231,98,133,39,"24395",9.965002,54.732023,"01059136",2011,0,4,0,0.0173160173160173
"01","Maasholm",8.4,639,312,327,76,"24404",9.990991,54.684232,"01059142",2011,0,19,0,0.0297339593114241
"01","Nieby",8.07,206,92,114,26,"24395",9.936705,54.771513,"01059147",2011,0,3,0,0.0145631067961165
"01","Niesgrau",9.89,578,288,290,58,"24395",9.81269,54.744061,"01059148",2011,0,13,0,0.0224913494809689
"01","Pommerby",5.55,161,82,79,29,"24395",9.937538,54.756629,"01059152",2011,0,2,1,0.0124223602484472
"01","Quern",22.74,1289,645,644,57,"24972",9.713194,54.759574,"01059153",2011,0,47,1,0.0364623739332816
"01","Rabel",8.84,637,327,310,72,"24376",9.949197,54.690304,"01059154",2011,0,27,1,0.0423861852433281
"01","Rabenholz",5.8,291,141,150,50,"24395",9.902241,54.722167,"01059155",2011,0,7,0,0.0240549828178694
"01","Stangheck",10,220,115,105,22,"24395",9.860273,54.712701,"01059163",2011,0,7,0,0.0318181818181818
"01","Steinberg",16.24,900,452,448,55,"24972",9.782278,54.755994,"01059164",2011,0,35,0,0.0388888888888889
"01","Steinbergkirche",13.01,1349,671,678,104,"24972",9.759969,54.7544,"01059165",2011,0,79,2,0.0585618977020015
"01","Sterup",17.14,1365,682,683,80,"24996",9.738907,54.727836,"01059167",2011,0,59,2,0.0432234432234432
"01","Stoltebüll",16.4,806,406,400,49,"24409",9.878987,54.700687,"01059168",2011,0,22,0,0.0272952853598015
"01","Bollingstedt",27.05,1471,737,734,54,"24855",9.412301,54.592885,"01059010",2011,0,47,1,0.0319510537049626
"01","Ellingstedt",21.49,824,413,411,38,"24870",9.409767,54.477836,"01059023",2011,0,23,1,0.0279126213592233
"01","Hollingstedt",17.51,1005,508,497,57,"24876",9.336606,54.455932,"01059039",2011,0,32,1,0.0318407960199005
"01","Hüsby",9.68,789,385,404,82,"24850",9.484547,54.496334,"01059041",2011,0,20,3,0.0253485424588086
"01","Jübek",15.58,2608,1297,1311,167,"24855",9.395088,54.556756,"01059044",2011,0,97,1,0.0371932515337423
"01","Lürschau",16.51,1127,567,560,68,"24850",9.49638,54.539646,"01059057",2011,0,26,0,0.0230700976042591
"01","Schuby",23.94,2528,1266,1262,106,"24850",9.480303,54.515216,"01059077",2011,0,86,1,0.0340189873417722
"01","Silberstedt",37.91,2204,1152,1052,58,"24887",9.370765,54.518594,"01059079",2011,0,83,4,0.0376588021778584
"01","Treia",21.72,1431,717,714,66,"24896",9.316617,54.518493,"01059092",2011,0,50,0,0.0349406009783368
"01","Alt Bennebek",14.09,350,192,158,25,"24848",9.431246,54.37764,"01059001",2011,0,15,0,0.0428571428571429
"01","Bergenhusen",18.22,674,350,324,37,"24861",9.316107,54.37635,"01059005",2011,0,24,0,0.0356083086053412
"01","Börm",18.71,736,392,344,39,"24863",9.378249,54.403299,"01059009",2011,0,24,0,0.0326086956521739
"01","Dörpstedt",16.61,546,284,262,33,"24869",9.362474,54.434053,"01059020",2011,0,23,0,0.0421245421245421
"01","Erfde",33.95,1955,952,1003,58,"24803",9.316988,54.308652,"01059024",2011,0,62,3,0.0317135549872123
"01","Groß Rheide",15.37,927,462,465,60,"24848",9.441851,54.441577,"01059035",2011,0,31,0,0.0334412081984898
"01","Klein Bennebek",25.63,534,286,248,21,"24848",9.456571,54.401997,"01059050",2011,0,17,0,0.0318352059925094
"01","Klein Rheide",12.82,316,179,137,25,"24848",9.476382,54.449511,"01059051",2011,0,6,0,0.0189873417721519
"01","Kropp",31.94,6400,3225,3175,200,"24848",9.508668,54.411198,"01059053",2011,0,193,12,0.03015625
"01","Meggerdorf",24.11,672,339,333,28,"24799",9.398289,54.347482,"01059058",2011,0,19,0,0.0282738095238095
"01","Norderstapel",15.92,808,419,389,51,"25868",9.244945,54.360881,"01059064",2011,0,22,2,0.0272277227722772
"01","Süderstapel",16.94,1047,511,536,62,"25879",9.218996,54.349368,"01059085",2011,0,42,0,0.0401146131805158
"01","Tetenhusen",23.13,929,463,466,40,"24817",9.494238,54.349121,"01059087",2011,0,20,1,0.0215285252960172
"01","Tielen",13.33,285,142,143,21,"24803",9.334919,54.285642,"01059088",2011,0,7,0,0.0245614035087719
"01","Wohlde",14.43,496,254,242,34,"24899",9.294744,54.404782,"01059096",2011,0,19,1,0.0383064516129032
"01","Bad Bramstedt, Stadt",24.14,13835,6764,7071,573,"24576",9.882114,53.918791,"01060004",2011,0,438,62,0.031658836284785
"01","Bad Segeberg, Stadt",18.87,15713,7335,8378,833,"23795",10.304016,53.936904,"01060005",2011,0,642,48,0.040857888372685
"01","Ellerau",7.09,5884,2843,3041,830,"25479",9.917436,53.753052,"01060019",2011,0,111,6,0.0188647178789939
"01","Henstedt-Ulzburg",39.47,27510,13645,13865,697,"24558",9.991924,53.783923,"01060039",2011,0,508,42,0.0184660123591421
"01","Kaltenkirchen, Stadt",23.1,20104,9881,10223,870,"24568",9.95931,53.838256,"01060044",2011,0,700,113,0.0348189415041783
"01","Norderstedt, Stadt",58.1,72436,34919,37517,1247,"22846",9.983634,53.695736,"01060063",2011,0,1949,308,0.0269065105748523
"01","Wahlstedt, Stadt",15.75,9210,4497,4713,585,"23812",10.211991,53.953136,"01060092",2011,0,383,33,0.041585233441911
"01","Armstedt",8.92,413,200,213,46,"24616",9.847056,53.971224,"01060003",2011,0,6,0,0.0145278450363196
"01","Bimöhlen",17.23,978,529,449,57,"24576",9.953587,53.935914,"01060009",2011,0,14,0,0.0143149284253579
"01","Borstel",5.12,129,66,63,25,"24616",9.797429,53.969544,"01060013",2011,0,2,0,0.0155038759689922
"01","Föhrden-Barl",9.23,292,148,144,32,"25563",9.787121,53.927491,"01060021",2011,0,3,0,0.0102739726027397
"01","Fuhlendorf",6.49,404,210,194,62,"24649",9.885481,53.943214,"01060023",2011,0,9,0,0.0222772277227723
"01","Großenaspe",45.62,2802,1384,1418,61,"24623",9.966826,53.976024,"01060027",2011,0,86,3,0.0306923625981442
"01","Hagen",8.2,408,211,197,50,"24576",9.826976,53.946622,"01060031",2011,0,16,1,0.0392156862745098
"01","Hardebek",10.01,466,238,228,47,"24616",9.86873,53.988375,"01060033",2011,0,7,0,0.0150214592274678
"01","Hasenkrug",5.2,345,176,169,66,"24616",9.849789,53.985062,"01060035",2011,0,5,0,0.0144927536231884
"01","Heidmoor",18.25,326,160,166,18,"24632",9.819023,53.864464,"01060037",2011,0,5,0,0.0153374233128834
"01","Hitzhusen",7.93,1316,667,649,166,"24576",9.85186,53.923021,"01060040",2011,0,19,0,0.0144376899696049
"01","Mönkloh",12.52,242,116,126,19,"24576",9.787844,53.888086,"01060056",2011,0,4,0,0.0165289256198347
"01","Weddelbrook",14.05,1041,505,536,74,"24576",9.830236,53.904105,"01060095",2011,0,18,0,0.0172910662824208
"01","Wiemersdorf",17.55,1562,777,785,89,"24649",9.903071,53.955139,"01060099",2011,0,26,1,0.0166453265044814
"01","Bornhöved",14.12,3407,1684,1723,241,"24619",10.225453,54.068565,"01060012",2011,0,114,4,0.0334605224537716
"01","Damsdorf",7.75,238,119,119,31,"23824",10.314111,54.064498,"01060017",2011,0,6,0,0.0252100840336134
"01","Gönnebek",14.87,470,231,239,32,"24610",10.176183,54.049604,"01060026",2011,0,14,0,0.0297872340425532
"01","Schmalensee",8.68,465,231,234,54,"24638",10.270438,54.082881,"01060072",2011,0,14,1,0.0301075268817204
"01","Stocksee",11.38,430,227,203,38,"24326",10.343273,54.089631,"01060080",2011,0,12,0,0.027906976744186
"01","Tarbek",10.02,163,88,75,16,"24619",10.265312,54.056377,"01060086",2011,0,5,0,0.0306748466257669
"01","Tensfeld",7.65,707,344,363,92,"23824",10.320723,54.042171,"01060087",2011,0,14,1,0.0198019801980198
"01","Trappenkamp",3.45,5001,2496,2505,1450,"24610",10.220969,54.041763,"01060089",2011,0,251,23,0.0501899620075985
"01","Itzstedt",7.13,2232,1124,1108,313,"23845",10.156532,53.806383,"01060043",2011,0,38,2,0.0170250896057348
"01","Kayhude",5.25,1120,557,563,213,"23863",10.134312,53.757591,"01060046",2011,0,15,1,0.0133928571428571
"01","Nahe",10.37,2438,1214,1224,235,"23866",10.134813,53.795442,"01060058",2011,0,34,1,0.0139458572600492
"01","Oering",9.09,1301,664,637,143,"23845",10.14788,53.825234,"01060065",2011,0,22,0,0.0169100691775557
"01","Seth",10.55,1933,995,938,183,"23845",10.175023,53.850389,"01060076",2011,0,33,4,0.0170719089498189
"01","Sülfeld",26.05,3387,1663,1724,130,"23867",10.231158,53.799371,"01060085",2011,0,60,2,0.0177147918511957
"01","Alveslohe",21.56,2570,1316,1254,119,"25486",9.913812,53.786905,"01060002",2011,0,53,3,0.0206225680933852
"01","Hartenholm",15.37,1780,912,868,116,"24628",10.06027,53.899992,"01060034",2011,0,37,1,0.0207865168539326
"01","Hasenmoor",17.77,725,379,346,41,"24640",9.981343,53.899913,"01060036",2011,0,16,0,0.0220689655172414
"01","Lentföhrden",20.07,2372,1194,1178,118,"24632",9.88825,53.873196,"01060054",2011,0,60,2,0.0252951096121417
"01","Nützen",21.62,1200,609,591,56,"24568",9.919785,53.864687,"01060064",2011,0,29,2,0.0241666666666667
"01","Schmalfeld",19.33,1897,977,920,98,"24640",9.983685,53.876899,"01060073",2011,0,39,1,0.0205587770163416
"01","Hüttblek",2.75,366,187,179,133,"24641",10.071818,53.839449,"01060042",2011,0,3,0,0.00819672131147541
"01","Kattendorf",9.84,855,435,420,87,"24568",10.02372,53.843003,"01060045",2011,0,14,0,0.016374269005848
"01","Kisdorf",24.52,3749,1867,1882,153,"24629",10.007001,53.807677,"01060047",2011,0,72,2,0.0192051213656975
"01","Oersdorf",6.65,855,442,413,129,"24568",9.994859,53.840292,"01060066",2011,0,14,0,0.016374269005848
"01","Sievershütten",7.08,1180,575,605,167,"24641",10.10622,53.841324,"01060077",2011,0,30,2,0.0254237288135593
"01","Struvenhütten",12.87,1050,543,507,82,"24643",10.055587,53.865597,"01060082",2011,0,21,0,0.02
"01","Stuvenborn",7.98,897,461,436,112,"24641",10.124938,53.851443,"01060084",2011,0,21,0,0.0234113712374582
"01","Wakendorf II",12.8,1393,674,719,109,"24558",10.079879,53.780211,"01060094",2011,0,24,1,0.0172290021536253
"01","Winsen",4.08,386,215,171,95,"24568",10.015363,53.830923,"01060100",2011,0,9,0,0.0233160621761658
"01","Bark",20.44,1016,523,493,50,"23826",10.18504,53.910574,"01060007",2011,0,32,1,0.031496062992126
"01","Bebensee",6.68,631,300,331,94,"23816",10.298549,53.875085,"01060008",2011,0,11,1,0.01743264659271
"01","Fredesdorf",5.9,377,199,178,64,"23826",10.203462,53.875227,"01060022",2011,0,8,0,0.0212201591511936
"01","Groß Niendorf",10.68,669,349,320,63,"23816",10.245303,53.845756,"01060029",2011,0,13,0,0.0194319880418535
"01","Högersdorf",4.94,394,204,190,80,"23795",10.284352,53.920748,"01060041",2011,0,8,0,0.0203045685279188
"01","Kükels",8.45,439,233,206,52,"23829",10.238536,53.89479,"01060051",2011,0,12,0,0.0273348519362187
"01","Leezen",14.98,1712,842,870,114,"23816",10.251739,53.865227,"01060053",2011,0,30,1,0.0175233644859813
"01","Mözen",7.72,439,228,211,57,"23795",10.258095,53.911034,"01060057",2011,0,8,0,0.0182232346241458
"01","Neversdorf",7.22,737,364,373,102,"23816",10.285861,53.864769,"01060062",2011,0,14,2,0.0189959294436906
"01","Schwissel",4.44,252,124,128,57,"23795",10.293634,53.895423,"01060074",2011,0,6,0,0.0238095238095238
"01","Todesfelde",17.24,1024,532,492,59,"23826",10.176081,53.891939,"01060088",2011,0,27,1,0.0263671875
"01","Wittenborn",6.19,832,440,392,134,"23829",10.223553,53.926269,"01060101",2011,0,21,0,0.0252403846153846
"01","Boostedt",27.11,4592,2263,2329,169,"24598",10.025784,54.010322,"01060011",2011,0,116,2,0.0252613240418118
"01","Daldorf",15.16,653,333,320,43,"24635",10.248642,54.017015,"01060016",2011,0,19,1,0.0290964777947933
"01","Groß Kummerfeld",30.18,2016,986,1030,67,"24626",10.073673,54.051541,"01060028",2011,0,42,2,0.0208333333333333
"01","Heidmühlen",17.83,716,335,381,40,"24598",10.083729,53.972481,"01060038",2011,0,16,0,0.0223463687150838
"01","Latendorf",17.94,585,294,291,33,"24598",10.063741,53.995075,"01060052",2011,0,15,1,0.0256410256410256
"01","Rickling",38.94,3195,1672,1523,82,"24635",10.164859,54.006058,"01060068",2011,0,65,0,0.0203442879499218
"01","Bahrenhof",5.71,202,107,95,35,"23845",10.379472,53.878558,"01060006",2011,0,1,0,0.00495049504950495
"01","Blunk",10.69,599,311,288,56,"23813",10.311949,54.010327,"01060010",2011,0,25,0,0.0417362270450751
"01","Bühnsdorf",4.15,341,175,166,82,"23845",10.375434,53.887097,"01060015",2011,0,7,0,0.0205278592375367
"01","Dreggers",2.79,53,28,25,19,"23845",10.345729,53.885276,"01060018",2011,0,1,0,0.0188679245283019
"01","Fahrenkrug",6.21,1558,793,765,251,"23795",10.257059,53.941285,"01060020",2011,0,36,1,0.0231065468549422
"01","Geschendorf",5.7,538,254,284,94,"23815",10.441563,53.921999,"01060024",2011,0,11,0,0.0204460966542751
"01","Glasau",18.82,917,467,450,49,"23719",10.516776,54.056668,"01060025",2011,0,31,1,0.0338058887677208
"01","Groß Rönnau",6.38,599,298,301,94,"23795",10.31242,53.972038,"01060030",2011,0,7,0,0.011686143572621
